time_s,north_vel_fps,east_vel_fps,down_vel_fps,height_ft,total_pres_psi,static_pres_psi,total_temp_K,aoa_rad,aos_rad,roll_angle_rad,pitch_angle_rad,true_heading_rad
0,42.070109602,-1086.691836736,-4.276800295,19534.7769028871,14.0008308095876,7.17052916880909,317.587878950541,-0.209509302948689,-7.51583312620929e-05,-0.0453483065259063,0.0110254867874825,-1.5816300481139
0.05,42.070109602,-1086.691836736,-4.276800295,19534.7769028871,14.0008308095876,7.17052916880909,317.587878950541,-0.209362916457036,-0.000135995082244544,-0.0460194231129705,0.0122718461634588,-1.58153417431575
0.1,42.070109602,-1086.691836736,-4.276800295,19534.7769028871,14.0008308095876,7.17052916880909,317.581513897939,-0.209128698070391,-0.00014816243244109,-0.0462111707092745,0.013230584144979,-1.58153417431575
0.15,42.070109602,-1086.691836736,-4.276800295,19534.7769028871,14.0008308095876,7.17052916880909,317.575148845338,-0.208865202385415,-0.00014816243244109,-0.0458276755166664,0.0145728173191073,-1.5816300481139
0.2,41.900333206,-1086.604572416,-4.070994948,19544.9475065617,13.9915001649988,7.16924761039569,317.565601266436,-0.208601706700439,-8.73256814585832e-05,-0.0454441803240583,0.0153398077043235,-1.58182179571021
0.25,41.900333206,-1086.604572416,-4.070994948,19544.9475065617,13.9915001649988,7.16924761039569,317.556053687534,-0.208484597507116,-5.08236308690568e-05,-0.0447730637369942,0.0160109242913876,-1.58210941710466
0.3,41.900333206,-1086.604572416,-4.070994948,19544.9475065617,13.9915001649988,7.16924761039569,317.543323582331,-0.208396765612124,-7.51583312620929e-05,-0.0444854423425381,0.0161067980895397,-1.58220529090282
0.35,41.900333206,-1086.604572416,-4.070994948,19544.9475065617,13.9915001649988,7.16924761039569,317.533776003429,-0.208601706700439,-6.29909810656026e-05,-0.0444854423425381,0.0159150504932356,-1.58230116470097
0.4,41.532938214,-1086.388547456,-4.447244141,19544.9475065617,13.9915001649988,7.16924761039569,317.524228424527,-0.208601706700439,-6.29909810656026e-05,-0.0443895685443861,0.0156274290987796,-1.58239703849912
0.45,41.532938214,-1086.388547456,-4.447244141,19544.9475065617,13.9915001649988,7.16924761039569,317.514680845625,-0.208718815893762,-3.86562806725665e-05,-0.0443895685443861,0.0148604387135634,-1.58239703849912
0.5,41.532938214,-1086.388547456,-4.447244141,19549.2125984252,13.9906158147486,7.1687080068532,317.505133266723,-0.208806647788754,-2.64889304761318e-05,-0.0446771899388421,0.0142851959246512,-1.58249291229727
0.55,41.532938214,-1086.388547456,-4.447244141,19549.2125984252,13.9906158147486,7.1687080068532,317.495585687821,-0.209070143473729,-3.86562806725665e-05,-0.0449648113332982,0.013326457943131,-1.58239703849912
0.6,41.293007102,-1086.189243072,-4.724481894,19549.2125984252,13.9906158147486,7.1687080068532,317.482855582618,-0.209275084562044,3.43478205064307e-05,-0.0453483065259063,0.0126553413560669,-1.58230116470097
0.65,41.293007102,-1086.189243072,-4.724481894,19549.2125984252,13.9906158147486,7.1687080068532,317.476490530017,-0.209275084562044,-6.29909810656026e-05,-0.0456359279203624,0.0118883509708507,-1.58220529090282
0.7,41.293007102,-1086.189243072,-4.724481894,19553.4776902887,13.9906158147486,7.1687080068532,317.466942951115,-0.209480025650359,-8.73256814585832e-05,-0.0459235493148184,0.0114089819800906,-1.58210941710466
0.75,41.293007102,-1086.189243072,-4.724481894,19553.4776902887,13.9906158147486,7.1687080068532,317.460577898514,-0.209567857545351,-0.000111660381851619,-0.0461152969111225,0.0108337391911785,-1.58191766950836
0.8,41.293007102,-1086.189243072,-4.724481894,19553.4776902887,13.9786321194092,7.1687080068532,317.447847793311,-0.209684966738673,-0.000135995082244544,-0.0459235493148184,0.0105461177967224,-1.58182179571021
0.85,40.930963152,-1085.852390592,-4.627787459,19553.4776902887,13.9786321194092,7.1687080068532,317.44466526701,-0.209714244037004,-0.000123827732048054,-0.0459235493148184,0.0103543702004184,-1.58182179571021
0.9,40.930963152,-1085.852390592,-4.627787459,19553.4776902887,13.9786321194092,7.1687080068532,317.438300214409,-0.209655689440343,-0.000111660381851619,-0.0458276755166664,0.0102584964022663,-1.58182179571021
0.95,40.930963152,-1085.852390592,-4.627787459,19553.4776902887,13.9786321194092,7.1687080068532,317.425570109206,-0.20953858024702,-0.00014816243244109,-0.0456359279203624,0.0103543702004184,-1.58182179571021
1,40.930963152,-1085.852390592,-4.627787459,19557.4146981627,13.9786321194092,7.1687080068532,317.419205056605,-0.209567857545351,-0.000123827732048054,-0.0454441803240583,0.0103543702004184,-1.58182179571021
1.05,40.684475774,-1085.569727424,-4.203037535,19557.4146981627,13.9786321194092,7.1687080068532,317.412840004004,-0.209450748352028,-0.00016032978263758,-0.0450606851314502,0.0106419915948744,-1.58191766950836
1.1,40.684475774,-1085.569727424,-4.203037535,19557.4146981627,13.964827262114,7.16782365660302,317.3969273725,-0.209450748352028,-0.00014816243244109,-0.0446771899388421,0.0108337391911785,-1.58191766950836
1.15,40.684475774,-1085.569727424,-4.203037535,19557.4146981627,13.964827262114,7.16782365660302,317.390562319899,-0.209421471053697,-0.000172497132834071,-0.0444854423425381,0.0111213605856345,-1.58191766950836
1.2,40.684475774,-1085.569727424,-4.203037535,19561.0236220472,13.964827262114,7.16782365660302,317.377832214696,-0.209245807263713,-0.00014816243244109,-0.044197820948082,0.0113131081819386,-1.58201354330651
1.25,40.360171354,-1084.930073856,-3.819343414,19561.0236220472,13.964827262114,7.16782365660302,317.371467162095,-0.209216529965383,-0.00016032978263758,-0.0436225781591699,0.0116007295763946,-1.58201354330651
1.3,40.360171354,-1084.930073856,-3.819343414,19561.0236220472,13.964827262114,7.16782365660302,317.358737056892,-0.209245807263713,-0.000208999183423597,-0.0432390829665618,0.0118883509708507,-1.58210941710466
1.35,40.360171354,-1084.930073856,-3.819343414,19561.0236220472,13.964827262114,7.16782365660302,317.34918947799,-0.209040866175399,-0.000208999183423597,-0.0427597139758017,0.0122718461634588,-1.58220529090282
1.4,40.360171354,-1084.930073856,-3.819343414,19561.0236220472,13.9581496682757,7.16728405306054,317.336459372787,-0.208923756982076,-0.000233333883816578,-0.0424720925813457,0.0124635937597628,-1.58230116470097
1.45,40.280985086,-1084.64728864,-3.74757919,19561.0236220472,13.9581496682757,7.16728405306054,317.323729267585,-0.208806647788754,-0.000233333883816578,-0.0422803449850416,0.013038836548675,-1.58258878609542
1.5,40.280985086,-1084.64728864,-3.74757919,19563.9763779527,13.9581496682757,7.16728405306054,317.310999162382,-0.209040866175399,-0.000208999183423597,-0.0422803449850416,0.013134710346827,-1.58268465989358
1.55,40.280985086,-1084.64728864,-3.74757919,19563.9763779527,13.9581496682757,7.16728405306054,317.30145158348,-0.208455320208786,-0.000257668584209614,-0.0421844711868896,0.0135182055394351,-1.58297228128803
1.6,40.280985086,-1084.64728864,-3.74757919,19563.9763779527,13.9581496682757,7.16728405306054,317.285538951977,-0.208572429402108,-0.000245501234013068,-0.0419927235905855,0.0136140793375871,-1.58325990268249
1.65,39.870999156,-1083.093983744,-3.746888856,19563.9763779527,13.9581496682757,7.16728405306054,317.272808846774,-0.208572429402108,-0.000196831833227107,-0.0421844711868896,0.0138058269338911,-1.58354752407694
1.7,39.870999156,-1083.093983744,-3.746888856,19566.9291338582,13.9459186546461,7.16693930635284,317.25371368897,-0.209157975368721,-0.000233333883816578,-0.0420885973887376,0.0137099531357391,-1.5836433978751
1.75,39.870999156,-1083.093983744,-3.746888856,19566.9291338582,13.9459186546461,7.16693930635284,317.237801057467,-0.208953034280407,-0.000172497132834071,-0.0424720925813457,0.0137099531357391,-1.58393101926955
1.8,39.870999156,-1083.093983744,-3.746888856,19566.9291338582,13.9459186546461,7.16693930635284,317.218705899663,-0.208923756982076,-0.000196831833227107,-0.0427597139758017,0.0135182055394351,-1.5840268930677
1.85,39.608348046,-1082.222316928,-4.10001186,19566.9291338582,13.9459186546461,7.16693930635284,317.196428215558,-0.209011588877068,-0.000208999183423597,-0.0436225781591699,0.013326457943131,-1.5840268930677
1.9,39.608348046,-1082.222316928,-4.10001186,19566.9291338582,13.9459186546461,7.16693930635284,317.180515584054,-0.209070143473729,-0.000172497132834071,-0.0443895685443861,0.013134710346827,-1.58393101926955
1.95,39.608348046,-1082.222316928,-4.10001186,19566.9291338582,13.9459186546461,7.16693930635284,317.15823789995,-0.209040866175399,-0.000208999183423597,-0.0450606851314502,0.013038836548675,-1.58393101926955
2,39.608348046,-1082.222316928,-4.10001186,19569.8818897638,13.9223934390924,7.16684187793544,317.135960215845,-0.209011588877068,-0.000208999183423597,-0.0459235493148184,0.0127512151542189,-1.58373927167325
2.05,39.322629864,-1080.956435072,-4.315499046,19569.8818897638,13.9223934390924,7.16684187793544,317.116865058041,-0.208835925087084,-0.000233333883816578,-0.0463070445074265,0.0126553413560669,-1.58373927167325
2.1,39.322629864,-1080.956435072,-4.315499046,19569.8818897638,13.9223934390924,7.16684187793544,317.097769900237,-0.209362916457036,-0.000294170634799085,-0.0463070445074265,0.0123677199616108,-1.5836433978751
2.15,39.322629864,-1080.956435072,-4.315499046,19569.8818897638,13.9223934390924,7.16684187793544,317.072309689832,-0.209714244037004,-0.00016032978263758,-0.0461152969111225,0.0123677199616108,-1.58373927167325
2.2,39.322629864,-1080.956435072,-4.315499046,19572.5065616798,13.9223934390924,7.16684187793544,317.050032005727,-0.209714244037004,-0.000123827732048054,-0.0454441803240583,0.0119842247690027,-1.58393101926955
2.25,39.09485397,-1080.114792064,-4.325432609,19572.5065616798,13.9223934390924,7.16684187793544,317.024571795322,-0.209919185125319,-0.000221166533620032,-0.0444854423425381,0.0118883509708507,-1.58421864066401
2.3,39.09485397,-1080.114792064,-4.325432609,19572.5065616798,13.8901221494544,7.16639970281035,317.002294111217,-0.21041689919694,-0.000111660381851619,-0.0437184519573219,0.0116007295763946,-1.58441038826031
2.35,39.09485397,-1080.114792064,-4.325432609,19572.5065616798,13.8901221494544,7.16639970281035,316.973651374511,-0.211002445163553,-7.51583312620929e-05,-0.0427597139758017,0.0112172343837865,-1.58479388345292
2.4,39.09485397,-1080.114792064,-4.325432609,19572.5065616798,13.8901221494544,7.16639970281035,316.945008637805,-0.210651117583585,-2.64889304761318e-05,-0.0420885973887376,0.0111213605856345,-1.58508150484738
2.45,38.759248668,-1078.882473408,-4.03542177,19572.5065616798,13.8901221494544,7.16639970281035,316.919548427399,-0.210563285688593,0.000107351921685428,-0.0415133545998254,0.0107378653930264,-1.58546500003998
2.5,38.759248668,-1078.882473408,-4.03542177,19575.4593175853,13.8901221494544,7.16639970281035,316.894088216994,-0.2108560586719,0.000253360124043422,-0.0417051021961295,0.0107378653930264,-1.58565674763629
2.55,38.759248668,-1078.882473408,-4.03542177,19575.4593175853,13.8901221494544,7.16639970281035,316.868628006589,-0.211031722461884,0.00032636422522242,-0.0425679663794977,0.0102584964022663,-1.58584849523259
2.6,38.759248668,-1078.882473408,-4.03542177,19575.4593175853,13.8547631284343,7.16586009926787,316.843167796183,-0.210768226776908,0.000338531575418966,-0.043814325755474,0.0104502439985704,-1.58584849523259
2.65,38.567576098,-1078.09819296,-3.717721291,19575.4593175853,13.8547631284343,7.16586009926787,316.817707585778,-0.211002445163553,0.000289862174632949,-0.0456359279203624,0.0100667488059623,-1.58565674763629
2.7,38.567576098,-1078.09819296,-3.717721291,19578.0839895013,13.8547631284343,7.16586009926787,316.785882322771,-0.21132449544519,0.000362866275811946,-0.0470740348926427,0.00997087500781027,-1.58546500003998
2.75,38.324204758,-1076.955945728,-3.366886687,19578.0839895013,13.8547631284343,7.16586009926787,316.747692007163,-0.211470881936843,0.00032636422522242,-0.0487038894612271,0.00987500120965825,-1.58508150484738
2.8,38.324204758,-1076.955945728,-3.366886687,19578.0839895013,13.8547631284343,7.16586009926787,316.712684217856,-0.211997873306795,0.000411535676597907,-0.0492791322501392,0.00949150601705016,-1.58488975725107
2.85,38.324204758,-1076.955945728,-3.366886687,19578.0839895013,13.8547631284343,7.16586009926787,316.680858954849,-0.211617268428497,0.000253360124043422,-0.0498543750390513,0.00929975842074612,-1.58450626205846
2.9,38.324204758,-1076.955945728,-3.366886687,19578.0839895013,13.837173551848,7.16566524243308,316.645851165542,-0.211587991130166,0.000229025423650442,-0.0498543750390513,0.00901213702629005,-1.58421864066401
2.95,38.056984476,-1076.199248128,-2.784157069,19578.0839895013,13.837173551848,7.16566524243308,316.620390955136,-0.211470881936843,9.51845714889377e-05,-0.0495667536445953,0.00891626322813803,-1.5840268930677
3,38.056984476,-1076.199248128,-2.784157069,19580.3805774278,13.837173551848,7.16566524243308,316.59174821843,-0.212378478185094,7.08498710959016e-05,-0.0487997632593791,0.0083410204392259,-1.58373927167325
3.05,38.056984476,-1076.199248128,-2.784157069,19580.3805774278,13.837173551848,7.16566524243308,316.566288008025,-0.212173537096779,3.43478205064307e-05,-0.0474575300852508,0.00824514664107387,-1.5838351454714
3.1,38.056984476,-1076.199248128,-2.784157069,19580.3805774278,13.837173551848,7.16566524243308,316.537645271319,-0.212027150605126,0.000107351921685428,-0.0462111707092745,0.00795752524661781,-1.5838351454714
3.15,37.780881388,-1075.059441856,-1.720293258,19580.3805774278,13.837173551848,7.16566524243308,316.509002534613,-0.212085705201787,9.51845714889377e-05,-0.044006073351778,0.00766990385216174,-1.58421864066401
3.2,37.780881388,-1075.059441856,-1.720293258,19582.6771653543,13.8035832313283,7.16620484597556,316.483542324207,-0.21220281439511,8.30172212924474e-05,-0.0425679663794977,0.00757403005400972,-1.58450626205846
3.25,37.780881388,-1075.059441856,-1.720293258,19582.6771653543,13.8035832313283,7.16620484597556,316.458082113802,-0.212466310080086,0.000131686622078409,-0.0407463642146093,0.00738228245770568,-1.58498563104922
3.3,37.780881388,-1075.059441856,-1.720293258,19582.6771653543,13.8035832313283,7.16620484597556,316.435804429697,-0.212378478185094,0.000192523373060971,-0.039787626233089,0.0074781562558577,-1.58546500003998
3.35,37.662460502,-1074.689758464,-1.401986353,19582.6771653543,13.8035832313283,7.16620484597556,316.410344219292,-0.21220281439511,0.000253360124043422,-0.039404131040481,0.0074781562558577,-1.58546500003998
3.4,37.662460502,-1074.689758464,-1.401986353,19582.6771653543,13.8035832313283,7.16620484597556,316.381701482586,-0.211910041411803,0.000289862174632949,-0.039404131040481,0.00719053486140163,-1.58594436903074
3.45,37.662460502,-1074.689758464,-1.401986353,19582.6771653543,13.8035832313283,7.16620484597556,316.35305874588,-0.212261368991771,0.0003506989256154,-0.0398835000312411,0.00728640865955366,-1.5864237380215
3.5,37.662460502,-1074.689758464,-1.401986353,19584.6456692913,13.7895835171982,7.26502723918682,316.324416009174,-0.212261368991771,0.000411535676597907,-0.0415133545998254,0.00709466106324961,-1.58680723321411
3.55,37.394473606,-1073.198209856,0.012488943,19584.6456692913,13.7895835171982,7.26502723918682,316.292590746167,-0.212378478185094,0.000460205077383924,-0.0428555877739537,0.00709466106324961,-1.58709485460857
3.6,37.394473606,-1073.198209856,0.012488943,19584.6456692913,13.7895835171982,7.26502723918682,316.267130535762,-0.212114982500118,0.000448037727187434,-0.0456359279203624,0.00699878726509759,-1.58738247600302
3.65,37.394473606,-1073.198209856,0.012488943,19584.6456692913,13.7895835171982,7.26502723918682,316.238487799056,-0.212144259798449,0.000435870376990888,-0.0479368990760109,0.00709466106324961,-1.58747834980118
3.7,37.394473606,-1073.198209856,0.012488943,19586.2860892388,13.7895835171982,7.26502723918682,316.209845062349,-0.212232091693441,0.00047237242758047,-0.0511966082131796,0.00699878726509759,-1.58757422359933
3.75,37.205299206,-1072.469705344,0.741967932,19586.2860892388,13.7895835171982,7.26502723918682,316.181202325643,-0.212085705201787,0.000496707127973395,-0.0535934531669802,0.00680703966879355,-1.58767009739748
3.8,37.205299206,-1072.469705344,0.741967932,19586.2860892388,13.7895835171982,7.26502723918682,316.152559588937,-0.212261368991771,0.000521041828366431,-0.0565655409096929,0.00680703966879355,-1.58767009739748
3.85,37.205299206,-1072.469705344,0.741967932,19586.2860892388,13.75642787731,7.40820204579291,316.11755179963,-0.212232091693441,0.000448037727187434,-0.0583871430745813,0.0066152920724895,-1.58767009739748
3.9,37.205299206,-1072.469705344,0.741967932,19586.2860892388,13.75642787731,7.40820204579291,316.088909062924,-0.211968596008465,0.000508874478169941,-0.0604963666339258,0.00642354447618546,-1.58757422359933
3.95,36.78006109,-1071.432785536,1.613180882,19586.2860892388,13.75642787731,7.40820204579291,316.060266326218,-0.212027150605126,0.000460205077383924,-0.06164685221175,0.00623179687988142,-1.58747834980118
4,36.78006109,-1071.432785536,1.613180882,19587.5984251968,13.75642787731,7.40820204579291,316.034806115813,-0.211968596008465,0.00047237242758047,-0.0627014639914222,0.00604004928357737,-1.58738247600302
4.05,36.78006109,-1071.432785536,1.613180882,19587.5984251968,13.75642787731,7.40820204579291,316.002980852806,-0.212319923588433,0.000521041828366431,-0.0634684543766384,0.00584830168727333,-1.58699898081042
4.1,36.78006109,-1071.432785536,1.613180882,19587.5984251968,13.75642787731,7.40820204579291,315.9743381161,-0.212319923588433,0.000484539777776904,-0.0634684543766384,0.00546480649466524,-1.58671135941596
4.15,36.494217046,-1070.758348288,2.302145656,19587.5984251968,13.7270569567128,7.47833551732871,315.945695379394,-0.212173537096779,0.000411535676597907,-0.0630849591840303,0.00536893269651322,-1.58651961181966
4.2,36.494217046,-1070.758348288,2.302145656,19588.5826771653,13.7270569567128,7.47833551732871,315.910687590086,-0.212349200886763,0.000338531575418966,-0.061742726009902,0.00508131130205716,-1.58613611662705
4.25,36.494217046,-1070.758348288,2.302145656,19588.5826771653,13.7270569567128,7.47833551732871,315.88204485338,-0.212232091693441,0.0003506989256154,-0.0605922404320778,0.00488956370575311,-1.5860402428289
4.3,36.494217046,-1070.758348288,2.302145656,19588.5826771653,13.7270569567128,7.47833551732871,315.853402116674,-0.212319923588433,0.0003506989256154,-0.0582912692764292,0.00469781610944907,-1.58594436903074
4.35,36.07820881,-1069.765243712,3.325155806,19588.5826771653,13.7270569567128,7.47833551732871,315.821576853667,-0.212319923588433,0.000338531575418966,-0.0567572885059969,0.00431432091684098,-1.58575262143444
4.4,36.07820881,-1069.765243712,3.325155806,19588.5826771653,13.7270569567128,7.47833551732871,315.796116643262,-0.212437032781755,0.000375033626008436,-0.0541686959558923,0.00402669952238492,-1.58584849523259
4.45,36.07820881,-1069.765243712,3.325155806,19588.5826771653,13.7163548197868,7.51276522113673,315.764291380255,-0.212114982500118,0.000277694824436459,-0.0525388413873079,0.00364320432977683,-1.58584849523259
4.5,36.07820881,-1069.765243712,3.325155806,19589.5669291338,13.7163548197868,7.51276522113673,315.732466117249,-0.212729805765062,0.000289862174632949,-0.0504296178279635,0.00354733053162481,-1.5860402428289
4.55,35.826889094,-1069.123637376,3.906373173,19589.5669291338,13.7163548197868,7.51276522113673,315.700640854242,-0.2126712511684,0.000277694824436459,-0.048608015663075,0.00316383533901672,-1.58613611662705
4.6,35.826889094,-1069.123637376,3.906373173,19589.5669291338,13.7163548197868,7.51276522113673,315.675180643837,-0.212612696571739,0.000387200976204982,-0.0462111707092745,0.00316383533901672,-1.58651961181966
4.65,35.826889094,-1069.123637376,3.906373173,19589.5669291338,13.7163548197868,7.51276522113673,315.64335538083,-0.212144259798449,0.000387200976204982,-0.0445813161406901,0.00287621394456065,-1.58671135941596
4.7,35.826889094,-1069.123637376,3.906373173,19589.8950131233,13.7163548197868,7.51276522113673,315.621077696725,-0.212378478185094,0.000411535676597907,-0.0424720925813457,0.0030679615408647,-1.58728660220487
4.75,35.522264914,-1068.149938432,5.077269266,19589.8950131233,13.6947407001128,7.53039976468489,315.589252433718,-0.212437032781755,0.000435870376990888,-0.0414174808016734,0.00278034014640863,-1.58747834980118
4.8,35.522264914,-1068.149938432,5.077269266,19589.8950131233,13.6947407001128,7.53039976468489,315.566974749614,-0.2126712511684,0.000448037727187434,-0.0405546166183052,0.00297208774271268,-1.58786184499378
4.85,35.522264914,-1068.149938432,5.077269266,19589.8950131233,13.6947407001128,7.53039976468489,315.535149486607,-0.212232091693441,0.000545376528759411,-0.0404587428201532,0.00297208774271268,-1.58795771879194
4.9,35.522264914,-1068.149938432,5.077269266,19589.8950131233,13.6947407001128,7.53039976468489,315.5033242236,-0.211734377621819,0.000496707127973395,-0.0411298594072174,0.00345145673347278,-1.58814946638824
4.95,35.380166716,-1067.51235968,5.509374489,19589.8950131233,13.6947407001128,7.53039976468489,315.477864013195,-0.211734377621819,0.000569711229152448,-0.0409381118109133,0.00345145673347278,-1.58814946638824
5,35.380166716,-1067.51235968,5.509374489,19589.8950131233,13.6947407001128,7.53039976468489,315.452403802789,-0.212027150605126,0.000521041828366431,-0.0410339856090653,0.00393082572423289,-1.58814946638824
5.05,35.380166716,-1067.51235968,5.509374489,19589.8950131233,13.6760794109352,7.53835891693655,315.423761066083,-0.212261368991771,0.000496707127973395,-0.0410339856090653,0.00393082572423289,-1.58805359259009
5.1,35.380166716,-1067.51235968,5.509374489,19589.8950131233,13.6760794109352,7.53835891693655,315.398300855678,-0.211675823025158,0.000484539777776904,-0.0412257332053694,0.00412257332053694,-1.58805359259009
5.15,35.140067788,-1066.5530624,5.952315286,19589.8950131233,13.6760794109352,7.53835891693655,315.369658118972,-0.211939318710134,0.00047237242758047,-0.0408422380127613,0.00402669952238492,-1.58795771879194
5.2,35.140067788,-1066.5530624,5.952315286,19589.5669291338,13.6760794109352,7.53835891693655,315.344197908567,-0.211646545726827,0.000508874478169941,-0.0406504904164572,0.00431432091684098,-1.58795771879194
5.25,35.140067788,-1066.5530624,5.952315286,19589.5669291338,13.6760794109352,7.53835891693655,315.31237264556,-0.212027150605126,0.00047237242758047,-0.0401711214256971,0.00421844711868896,-1.58805359259009
5.3,35.140067788,-1066.5530624,5.952315286,19589.5669291338,13.6760794109352,7.53835891693655,315.283729908854,-0.212027150605126,0.000484539777776904,-0.0400752476275451,0.00450606851314502,-1.58805359259009
5.35,35.034091984,-1066.241962048,5.981866158,19589.5669291338,13.6575605171368,7.54134921990115,315.255087172148,-0.212056427903457,0.000496707127973395,-0.0399793738293931,0.00450606851314502,-1.58814946638824
5.4,35.034091984,-1066.241962048,5.981866158,19589.5669291338,13.6575605171368,7.54134921990115,315.232809488043,-0.211265940848529,0.000277694824436459,-0.0403628690220012,0.00469781610944907,-1.58814946638824
5.45,35.034091984,-1066.241962048,5.981866158,19589.5669291338,13.6575605171368,7.54134921990115,315.210531803938,-0.211500159235174,0.00032636422522242,-0.0407463642146093,0.00460194231129705,-1.58834121398454
5.5,35.034091984,-1066.241962048,5.981866158,19589.2388451443,13.6575605171368,7.54134921990115,315.181889067232,-0.211675823025158,0.000253360124043422,-0.0410339856090653,0.00469781610944907,-1.5884370877827
5.55,34.643767224,-1064.925674368,6.084489456,19589.2388451443,13.6575605171368,7.54134921990115,315.156428856827,-0.211910041411803,0.000302029524829384,-0.0413216070035214,0.004410194714993,-1.58853296158085
5.6,34.643767224,-1064.925674368,6.084489456,19589.2388451443,13.6575605171368,7.54134921990115,315.130968646422,-0.211587991130166,0.000362866275811946,-0.0418968497924335,0.00431432091684098,-1.58882058297531
5.65,34.643767224,-1064.925674368,6.084489456,19589.2388451443,13.6375202411284,7.54209117477207,315.099143383415,-0.211265940848529,0.000375033626008436,-0.0424720925813457,0.00402669952238492,-1.58920407816791
5.7,34.643767224,-1064.925674368,6.084489456,19588.5826771653,13.6375202411284,7.54209117477207,315.073683173009,-0.211705100323489,0.000362866275811946,-0.0429514615721058,0.00364320432977683,-1.58949169956237
5.75,34.39062823,-1064.28785152,6.046223594,19588.5826771653,13.6375202411284,7.54209117477207,315.048222962604,-0.212349200886763,0.000545376528759411,-0.0437184519573219,0.00325970913716874,-1.58987519475498
5.8,34.39062823,-1064.28785152,6.046223594,19588.5826771653,13.6375202411284,7.54209117477207,315.022762752199,-0.212583419273408,0.000569711229152448,-0.044197820948082,0.00278034014640863,-1.59016281614943
5.85,34.39062823,-1064.28785152,6.046223594,19588.5826771653,13.6375202411284,7.54209117477207,314.997302541793,-0.212261368991771,0.000618380629938464,-0.0450606851314502,0.00249271875195257,-1.59045043754389
5.9,34.39062823,-1064.28785152,6.046223594,19588.5826771653,13.6375202411284,7.54209117477207,314.975024857689,-0.212232091693441,0.000703552081313952,-0.0451565589296023,0.00230097115564852,-1.59054631134204
5.95,34.066560278,-1063.331483392,6.154100677,19588.5826771653,13.6167904717046,7.54130425293928,314.946382120983,-0.212759083063392,0.000630547980134899,-0.0456359279203624,0.00210922355934448,-1.59054631134204
6,34.066560278,-1063.331483392,6.154100677,19587.9265091863,13.6167904717046,7.54130425293928,314.917739384277,-0.212290646290102,0.000618380629938464,-0.0465946659018826,0.0022050973574965,-1.59054631134204
6.05,34.066560278,-1063.331483392,6.154100677,19587.9265091863,13.6167904717046,7.54130425293928,314.88909664757,-0.211529436533505,0.000606213279741918,-0.0467864134981866,0.00249271875195257,-1.59035456374574
6.1,34.066560278,-1063.331483392,6.154100677,19587.9265091863,13.6167904717046,7.54130425293928,314.863636437165,-0.211646545726827,0.000618380629938464,-0.0465946659018826,0.00268446634825661,-1.59035456374574
6.15,33.883244182,-1062.71892448,6.546849234,19587.9265091863,13.6167904717046,7.54130425293928,314.834993700459,-0.212027150605126,0.000715719431510387,-0.0467864134981866,0.0030679615408647,-1.59035456374574
6.2,33.883244182,-1062.71892448,6.546849234,19587.2703412073,13.6167904717046,7.54130425293928,314.809533490054,-0.212232091693441,0.000715719431510387,-0.0469781610944907,0.00325970913716874,-1.59025868994759
6.25,33.883244182,-1062.71892448,6.546849234,19587.2703412073,13.5909569521081,7.53801417022885,314.780890753348,-0.212407755483424,0.000654882680527935,-0.0474575300852508,0.00345145673347278,-1.59035456374574
6.3,33.883244182,-1062.71892448,6.546849234,19587.2703412073,13.5909569521081,7.53801417022885,314.755430542942,-0.211880764113473,0.000618380629938464,-0.0479368990760109,0.00373907812792885,-1.59025868994759
6.35,33.514312148,-1061.626838976,6.601198734,19587.2703412073,13.5909569521081,7.53801417022885,314.729970332537,-0.211792932218481,0.000496707127973395,-0.0478410252778589,0.00354733053162481,-1.59025868994759
6.4,33.514312148,-1061.626838976,6.601198734,19587.2703412073,13.5909569521081,7.53801417022885,314.701327595831,-0.211529436533505,0.000375033626008436,-0.0476492776815548,0.00364320432977683,-1.59035456374574
6.45,33.514312148,-1061.626838976,6.601198734,19587.2703412073,13.5602145391738,7.53437934081072,314.675867385425,-0.211910041411803,0.000387200976204982,-0.0468822872963387,0.00316383533901672,-1.59045043754389
6.5,33.514312148,-1061.626838976,6.601198734,19586.6141732283,13.5602145391738,7.53437934081072,314.653589701321,-0.211939318710134,0.000180356022864425,-0.0464029183055785,0.00316383533901672,-1.59073805893835
6.55,33.220962152,-1060.840117568,6.670501021,19586.6141732283,13.5602145391738,7.53437934081072,314.634494543517,-0.212846914958384,0.0003506989256154,-0.0454441803240583,0.00258859255010459,-1.5910256803328
6.6,33.220962152,-1060.840117568,6.670501021,19586.6141732283,13.5602145391738,7.53437934081072,314.609034333111,-0.212466310080086,0.00047237242758047,-0.0449648113332982,0.00230097115564852,-1.59131330172726
6.65,33.220962152,-1060.840117568,6.670501021,19586.6141732283,13.5602145391738,7.53437934081072,314.586756649007,-0.211587991130166,0.000387200976204982,-0.044197820948082,0.0022050973574965,-1.59188854451617
6.7,33.220962152,-1060.840117568,6.670501021,19585.6299212598,13.5602145391738,7.53437934081072,314.561296438601,-0.212466310080086,0.000642715330331445,-0.0437184519573219,0.00191747596304044,-1.59227203970878
6.75,32.791871896,-1059.716787776,6.958459928,19585.6299212598,13.5624254147992,7.52941798601731,314.532653701895,-0.213198242538352,0.000740054131903423,-0.0431432091684098,0.0022050973574965,-1.59265553490139
6.8,32.791871896,-1059.716787776,6.958459928,19585.6299212598,13.5624254147992,7.52941798601731,314.504010965189,-0.213344629030006,0.000788723532689439,-0.0428555877739537,0.00191747596304044,-1.59294315629584
6.85,32.791871896,-1059.716787776,6.958459928,19585.6299212598,13.5624254147992,7.52941798601731,314.481733281084,-0.211265940848529,0.000861727633868437,-0.0434308305628659,0.00239684495380055,-1.5932307776903
6.9,32.791871896,-1059.716787776,6.958459928,19585.6299212598,13.5624254147992,7.52941798601731,314.453090544378,-0.211353772743521,0.000934731735047434,-0.044197820948082,0.00239684495380055,-1.5932307776903
6.95,32.566075468,-1059.008787328,7.203675337,19585.6299212598,13.5624254147992,7.52941798601731,314.433995386574,-0.211880764113473,0.000910397034654398,-0.0455400541222103,0.00239684495380055,-1.59313490389215
7,32.566075468,-1059.008787328,7.203675337,19584.6456692913,13.5624254147992,7.52941798601731,314.408535176169,-0.21264197387007,0.00094689908524398,-0.0476492776815548,0.00297208774271268,-1.59294315629584
7.05,32.566075468,-1059.008787328,7.203675337,19584.6456692913,13.5234240698674,7.5252435530567,314.386257492064,-0.212173537096779,0.00082522558327891,-0.0492791322501392,0.00297208774271268,-1.59255966110323
7.1,32.566075468,-1059.008787328,7.203675337,19584.6456692913,13.5234240698674,7.5252435530567,314.360797281659,-0.211060999760214,0.000691384731117461,-0.0503337440298114,0.00335558293532076,-1.59227203970878
7.15,32.238182074,-1057.926831808,7.417366129,19584.6456692913,13.5234240698674,7.5252435530567,314.335337071254,-0.211383050041851,0.000606213279741918,-0.0510048606168756,0.00325970913716874,-1.59188854451617
7.2,32.238182074,-1057.926831808,7.417366129,19583.6614173228,13.5234240698674,7.5252435530567,314.313059387149,-0.211617268428497,0.000496707127973395,-0.0511966082131796,0.00364320432977683,-1.59169679691987
7.25,32.238182074,-1057.926831808,7.417366129,19583.6614173228,13.5234240698674,7.5252435530567,314.287599176743,-0.212495587378416,0.000423703026794453,-0.0505254916261155,0.00354733053162481,-1.59131330172726
7.3,32.238182074,-1057.926831808,7.417366129,19583.6614173228,13.5234240698674,7.5252435530567,314.258956440037,-0.212027150605126,0.000302029524829384,-0.0500461226353554,0.00373907812792885,-1.59131330172726
7.35,32.083131532,-1057.538719168,7.409926922,19583.6614173228,13.5115902644009,7.51969013326529,314.233496229632,-0.211617268428497,0.000314196875025929,-0.048512141864923,0.00364320432977683,-1.59131330172726
7.4,32.083131532,-1057.538719168,7.409926922,19583.6614173228,13.5115902644009,7.51969013326529,314.208036019227,-0.211412327340182,0.000265527474239913,-0.0468822872963387,0.00383495192608087,-1.59140917552541
7.45,32.083131532,-1057.538719168,7.409926922,19583.6614173228,13.5115902644009,7.51969013326529,314.179393282521,-0.211236663550198,0.0003506989256154,-0.0452524327277543,0.00421844711868896,-1.59169679691987
7.5,32.083131532,-1057.538719168,7.409926922,19582.3490813648,13.5115902644009,7.51969013326529,314.157115598416,-0.211997873306795,0.000338531575418966,-0.0442936947462341,0.00450606851314502,-1.59208029211247
7.55,31.545523441,-1055.789893376,7.070866136,19582.3490813648,13.5115902644009,7.51969013326529,314.125290335409,-0.211968596008465,0.000362866275811946,-0.0431432091684098,0.00517718510020918,-1.59246378730508
7.6,31.545523441,-1055.789893376,7.070866136,19582.3490813648,13.5115902644009,7.51969013326529,314.093465072402,-0.211529436533505,0.000508874478169941,-0.0427597139758017,0.00556068029281726,-1.59284728249769
7.65,31.545523441,-1055.789893376,7.070866136,19582.3490813648,13.4879601259363,7.51428660334679,314.068004861997,-0.210621840285254,0.000557543878955957,-0.0420885973887376,0.00632767067803344,-1.5932307776903
7.7,31.545523441,-1055.789893376,7.070866136,19581.3648293963,13.4879601259363,7.51428660334679,314.039362125291,-0.210914613268561,0.000679217380920916,-0.0418009759942815,0.0066152920724895,-1.59361427288291
7.75,31.289834788,-1054.905655616,6.471831668,19581.3648293963,13.4879601259363,7.51428660334679,314.010719388585,-0.211148831655206,0.000654882680527935,-0.0424720925813457,0.0074781562558577,-1.59390189427736
7.8,31.289834788,-1054.905655616,6.471831668,19581.3648293963,13.4879601259363,7.51428660334679,313.982076651879,-0.211383050041851,0.000618380629938464,-0.0434308305628659,0.00786165144846579,-1.59399776807551
7.85,31.289834788,-1054.905655616,6.471831668,19581.3648293963,13.4879601259363,7.51428660334679,313.950251388872,-0.211148831655206,0.000569711229152448,-0.0450606851314502,0.00862864183368196,-1.59418951567182
7.9,31.289834788,-1054.905655616,6.471831668,19580.0524934383,13.4879601259363,7.51428660334679,313.918426125865,-0.210680394881916,0.000618380629938464,-0.0455400541222103,0.00891626322813803,-1.59428538946997
7.95,30.937663377,-1053.606454656,5.197215752,19580.0524934383,13.4545122007958,7.50799872317811,313.880235810257,-0.210211958108625,0.000569711229152448,-0.0463070445074265,0.00920388462259409,-1.59438126326812
8,30.937663377,-1053.606454656,5.197215752,19580.0524934383,13.4545122007958,7.50799872317811,313.848410547251,-0.210826781373569,0.000594045929545428,-0.0470740348926427,0.00949150601705016,-1.59457301086443
8.05,30.937663377,-1053.606454656,5.197215752,19580.0524934383,13.4545122007958,7.50799872317811,313.813402757943,-0.21132449544519,0.000618380629938464,-0.0475534038834028,0.00987500120965825,-1.59466888466258
8.1,30.937663377,-1053.606454656,5.197215752,19580.0524934383,13.4545122007958,7.50799872317811,313.781577494937,-0.210943890566892,0.000594045929545428,-0.0478410252778589,0.0100667488059623,-1.59476475846073
8.15,30.669056706,-1052.77140224,4.153539443,19580.0524934383,13.4545122007958,7.50799872317811,313.746569705629,-0.210358344600278,0.000606213279741918,-0.048320394268619,0.0104502439985704,-1.59495650605703
8.2,30.669056706,-1052.77140224,4.153539443,19579.0682414698,13.4545122007958,7.50799872317811,313.708379390021,-0.210504731091932,0.000581878579348938,-0.048416268066771,0.0106419915948744,-1.59495650605703
8.25,30.669056706,-1052.77140224,4.153539443,19579.0682414698,13.4141393635268,7.50009203238197,313.676554127014,-0.21088533597023,0.000594045929545428,-0.0487038894612271,0.0112172343837865,-1.59505237985519
8.3,30.669056706,-1052.77140224,4.153539443,19579.0682414698,13.4141393635268,7.50009203238197,313.638363811406,-0.21132449544519,0.000618380629938464,-0.0488956370575311,0.0116007295763946,-1.59505237985519
8.35,30.272768757,-1051.517114944,2.451030867,19579.0682414698,13.4141393635268,7.50009203238197,313.6097210747,-0.211002445163553,0.000618380629938464,-0.0493750060482912,0.0123677199616108,-1.59514825365334
8.4,30.272768757,-1051.517114944,2.451030867,19579.0682414698,13.4141393635268,7.50009203238197,313.577895811694,-0.210329067301948,0.000581878579348938,-0.0495667536445953,0.013134710346827,-1.59514825365334
8.45,30.272768757,-1051.517114944,2.451030867,19578.4120734908,13.4141393635268,7.50009203238197,313.549253074988,-0.210211958108625,0.000460205077383924,-0.0499502488372034,0.0139017007320432,-1.59505237985519
8.5,30.272768757,-1051.517114944,2.451030867,19578.4120734908,13.4141393635268,7.50009203238197,313.520610338281,-0.210709672180246,0.00047237242758047,-0.0499502488372034,0.0143810697228033,-1.59495650605703
8.55,29.984817478,-1050.511927616,1.203391373,19578.4120734908,13.3891452272187,7.4901768172888,313.488785075275,-0.210651117583585,0.000508874478169941,-0.0495667536445953,0.0152439339061715,-1.59505237985519
8.6,29.984817478,-1050.511927616,1.203391373,19578.4120734908,13.3891452272187,7.4901768172888,313.453777285967,-0.210592562986924,0.000508874478169941,-0.0490873846538352,0.0156274290987796,-1.59505237985519
8.65,29.984817478,-1050.511927616,1.203391373,19578.4120734908,13.3891452272187,7.4901768172888,313.425134549261,-0.210621840285254,0.000508874478169941,-0.048224520470467,0.0158191766950836,-1.59514825365334
8.7,29.984817478,-1050.511927616,1.203391373,19578.4120734908,13.3891452272187,7.4901768172888,313.396491812555,-0.210914613268561,0.000521041828366431,-0.0475534038834028,0.0157233028969316,-1.59524412745149
8.75,29.477688968,-1049.062851712,-0.614946476,19578.0839895013,13.3891452272187,7.4901768172888,313.364666549548,-0.210621840285254,0.000521041828366431,-0.0467864134981866,0.0156274290987796,-1.59524412745149
8.8,29.477688968,-1049.062851712,-0.614946476,19578.0839895013,13.3891452272187,7.4901768172888,313.336023812842,-0.210943890566892,0.000618380629938464,-0.0462111707092745,0.0154356815024755,-1.59524412745149
8.85,29.477688968,-1049.062851712,-0.614946476,19578.0839895013,13.3652677704637,7.48035153611938,313.307381076136,-0.210943890566892,0.000654882680527935,-0.0458276755166664,0.0153398077043235,-1.59534000124964
8.9,29.477688968,-1049.062851712,-0.614946476,19578.0839895013,13.3652677704637,7.48035153611938,313.272373286829,-0.211529436533505,0.000606213279741918,-0.0459235493148184,0.0152439339061715,-1.59514825365334
8.95,29.226882235,-1048.12564512,-1.668790909,19578.0839895013,13.3652677704637,7.48035153611938,313.240548023822,-0.211734377621819,0.000618380629938464,-0.0461152969111225,0.0151480601080194,-1.59505237985519
9,29.226882235,-1048.12564512,-1.668790909,19578.0839895013,13.3652677704637,7.48035153611938,313.208722760816,-0.211295218146859,0.000654882680527935,-0.0460194231129705,0.0153398077043235,-1.59486063225888
9.05,29.226882235,-1048.12564512,-1.668790909,19578.0839895013,13.3652677704637,7.48035153611938,313.176897497809,-0.211383050041851,0.000654882680527935,-0.0452524327277543,0.0155315553006275,-1.59466888466258
9.1,29.226882235,-1048.12564512,-1.668790909,19578.0839895013,13.3652677704637,7.48035153611938,313.148254761103,-0.211031722461884,0.000630547980134899,-0.0447730637369942,0.0160109242913876,-1.59457301086443
9.15,28.907738157,-1046.79776288,-2.754417404,19578.0839895013,13.3362415965742,7.47096843007505,313.116429498096,-0.211558713831835,0.000533209178562921,-0.043814325755474,0.0162026718876917,-1.59447713706627
9.2,28.907738157,-1046.79776288,-2.754417404,19578.0839895013,13.3362415965742,7.47096843007505,313.084604235089,-0.211353772743521,0.000423703026794453,-0.0434308305628659,0.0165861670802998,-1.59428538946997
9.25,28.907738157,-1046.79776288,-2.754417404,19578.7401574803,13.3362415965742,7.47096843007505,313.049596445782,-0.211441604638513,0.000508874478169941,-0.0421844711868896,0.0166820408784518,-1.59409364187367
9.3,28.907738157,-1046.79776288,-2.754417404,19578.7401574803,13.3362415965742,7.47096843007505,313.014588656475,-0.211412327340182,0.00047237242758047,-0.0416092283979775,0.0168737884747558,-1.59409364187367
9.35,28.907738157,-1046.79776288,-2.754417404,19578.7401574803,13.3362415965742,7.47096843007505,312.979580867167,-0.211060999760214,0.000362866275811946,-0.0408422380127613,0.0167779146766038,-1.59409364187367
9.4,28.813128073,-1046.350334912,-3.02900252,19578.7401574803,13.3362415965742,7.47096843007505,312.94457307786,-0.211617268428497,0.000277694824436459,-0.0401711214256971,0.0166820408784518,-1.59409364187367
9.45,28.813128073,-1046.350334912,-3.02900252,19579.7244094488,13.3083470912251,7.46060354536315,312.906382762252,-0.211880764113473,0.000448037727187434,-0.0391165096460249,0.0164902932821477,-1.59418951567182
9.5,28.813128073,-1046.350334912,-3.02900252,19579.7244094488,13.3083470912251,7.46060354536315,312.868192446644,-0.212349200886763,0.00047237242758047,-0.0384453930589607,0.0162026718876917,-1.59438126326812
9.55,28.813128073,-1046.350334912,-3.02900252,19579.7244094488,13.3083470912251,7.46060354536315,312.833184657336,-0.21176365492015,0.000411535676597907,-0.0377742764718966,0.0159150504932356,-1.59457301086443
9.6,28.323284611,-1044.756388032,-3.926295602,19579.7244094488,13.3083470912251,7.46060354536315,312.798176868029,-0.211353772743521,0.000435870376990888,-0.0369114122885284,0.0155315553006275,-1.59466888466258
9.65,28.323284611,-1044.756388032,-3.926295602,19579.7244094488,13.3083470912251,7.46060354536315,312.769534131323,-0.21176365492015,0.00047237242758047,-0.0361444219033122,0.0150521863098674,-1.59486063225888
9.7,28.323284611,-1044.756388032,-3.926295602,19579.7244094488,13.3083470912251,7.46060354536315,312.740891394617,-0.212407755483424,0.000496707127973395,-0.0357609267107041,0.0147645649154114,-1.59495650605703
9.75,28.323284611,-1044.756388032,-3.926295602,19581.0367454068,13.2663554433287,7.44930934343919,312.715431184211,-0.213256797135014,0.000508874478169941,-0.0348980625273359,0.0140934483283472,-1.59514825365334
9.8,28.167253871,-1044.039600128,-4.011035054,19581.0367454068,13.2663554433287,7.44930934343919,312.686788447505,-0.212144259798449,0.000496707127973395,-0.0344186935365758,0.0140934483283472,-1.59524412745149
9.85,28.167253871,-1044.039600128,-4.011035054,19581.0367454068,13.2663554433287,7.44930934343919,312.6613282371,-0.211675823025158,0.000533209178562921,-0.0337475769495117,0.0136140793375871,-1.59534000124964
9.9,28.167253871,-1044.039600128,-4.011035054,19581.0367454068,13.2663554433287,7.44930934343919,312.635868026695,-0.211880764113473,0.000679217380920916,-0.0333640817569036,0.0135182055394351,-1.59543587504779
9.95,28.167253871,-1044.039600128,-4.011035054,19582.6771653543,13.2663554433287,7.44930934343919,312.607225289988,-0.212964024151707,0.000800890882885985,-0.0331723341605995,0.013326457943131,-1.59543587504779
10,27.992950257,-1042.984129024,-3.568382214,19582.6771653543,13.2663554433287,7.44930934343919,312.581765079583,-0.212993301450038,0.00047237242758047,-0.0328847127661435,0.013134710346827,-1.59543587504779
10.05,27.992950257,-1042.984129024,-3.568382214,19582.6771653543,13.2667976184538,7.43707832980952,312.559487395478,-0.212495587378416,0.000314196875025929,-0.0327888389679915,0.0127512151542189,-1.59524412745149
10.1,27.992950257,-1042.984129024,-3.568382214,19582.6771653543,13.2667976184538,7.43707832980952,312.530844658772,-0.211939318710134,0.000338531575418966,-0.0324053437753834,0.0124635937597628,-1.59514825365334
10.15,27.992950257,-1042.984129024,-3.568382214,19582.6771653543,13.2667976184538,7.43707832980952,312.502201922066,-0.212378478185094,0.000423703026794453,-0.0318301009864712,0.0118883509708507,-1.59514825365334
10.2,27.935316903,-1042.325558016,-2.959602976,19582.6771653543,13.2667976184538,7.43707832980952,312.476741711661,-0.212993301450038,0.000557543878955957,-0.0313507319957111,0.0114089819800906,-1.59524412745149
10.25,27.935316903,-1042.325558016,-2.959602976,19583.9895013123,13.2667976184538,7.43707832980952,312.444916448654,-0.213139687941691,0.000557543878955957,-0.030583741610495,0.0105461177967224,-1.59524412745149
10.3,27.935316903,-1042.325558016,-2.959602976,19583.9895013123,13.2667976184538,7.43707832980952,312.416273711948,-0.212729805765062,0.000448037727187434,-0.0302002464178869,0.00987500120965825,-1.59524412745149
10.35,27.935316903,-1042.325558016,-2.959602976,19583.9895013123,13.2406643191115,7.42705819180532,312.387630975242,-0.211968596008465,0.000460205077383924,-0.0300084988215828,0.00901213702629005,-1.59543587504779
10.4,27.75806316,-1041.393355392,-1.808943967,19583.9895013123,13.2406643191115,7.42705819180532,312.362170764837,-0.212876192256715,0.00047237242758047,-0.0296250036289747,0.0083410204392259,-1.59543587504779
10.45,27.75806316,-1041.393355392,-1.808943967,19585.3018372703,13.2406643191115,7.42705819180532,312.336710554431,-0.21352029281999,0.000545376528759411,-0.0294332560326707,0.00738228245770568,-1.5956276226441
10.5,27.75806316,-1041.393355392,-1.808943967,19585.3018372703,13.2406643191115,7.42705819180532,312.314432870327,-0.213754511206635,0.000460205077383924,-0.0295291298308227,0.00671116587064153,-1.59572349644225
10.55,27.75806316,-1041.393355392,-1.808943967,19585.3018372703,13.2406643191115,7.42705819180532,312.288972659921,-0.213227519836683,0.000484539777776904,-0.0297208774271268,0.00584830168727333,-1.59591524403855
10.6,27.664030897,-1040.804107648,-0.772798401,19585.3018372703,13.2406643191115,7.42705819180532,312.266694975817,-0.213051856046699,0.000533209178562921,-0.0300084988215828,0.00546480649466524,-1.59591524403855
10.65,27.664030897,-1040.804107648,-0.772798401,19585.3018372703,13.2162997202695,7.4171354822185,312.244417291712,-0.212964024151707,0.000557543878955957,-0.0304878678123429,0.00517718510020918,-1.59620286543301
10.7,27.664030897,-1040.804107648,-0.772798401,19585.3018372703,13.2162997202695,7.4171354822185,312.225322133908,-0.213461738223328,0.000642715330331445,-0.0310631106012551,0.00517718510020918,-1.59639461302931
10.75,27.664030897,-1040.804107648,-0.772798401,19586.2860892388,13.2162997202695,7.4171354822185,312.206226976104,-0.213491015521659,0.000606213279741918,-0.0323094699772313,0.00517718510020918,-1.59639461302931
10.8,27.560005954,-1039.976011968,1.069098526,19586.2860892388,13.2162997202695,7.4171354822185,312.1871318183,-0.21264197387007,0.000654882680527935,-0.0333640817569036,0.00565655409096929,-1.59658636062562
10.85,27.560005954,-1039.976011968,1.069098526,19586.2860892388,13.2162997202695,7.4171354822185,312.168036660496,-0.212759083063392,0.000654882680527935,-0.03508981012364,0.00575242788912131,-1.59668223442377
10.9,27.560005954,-1039.976011968,1.069098526,19586.2860892388,13.2162997202695,7.4171354822185,312.148941502692,-0.212378478185094,0.000594045929545428,-0.0361444219033122,0.00604004928357737,-1.59668223442377
10.95,27.560005954,-1039.976011968,1.069098526,19587.2703412073,13.209374808141,7.40692048737951,312.129846344888,-0.212583419273408,0.000618380629938464,-0.0372949074811365,0.00613592308172939,-1.59677810822192
11,27.500213876,-1039.457430016,2.196051618,19587.2703412073,13.209374808141,7.40692048737951,312.113933713384,-0.212466310080086,0.000606213279741918,-0.0391165096460249,0.00632767067803344,-1.59677810822192
11.05,27.500213876,-1039.457430016,2.196051618,19587.2703412073,13.209374808141,7.40692048737951,312.09483855558,-0.212554141975078,0.000557543878955957,-0.0408422380127613,0.00613592308172939,-1.59668223442377
11.1,27.500213876,-1039.457430016,2.196051618,19587.2703412073,13.209374808141,7.40692048737951,312.075743397776,-0.212349200886763,0.000594045929545428,-0.0420885973887376,0.00594417548542535,-1.59658636062562
11.15,27.500213876,-1039.457430016,2.196051618,19587.2703412073,13.209374808141,7.40692048737951,312.056648239972,-0.212173537096779,0.000569711229152448,-0.0434308305628659,0.00546480649466524,-1.59668223442377
11.2,27.332041267,-1038.702807232,3.482229675,19587.2703412073,13.209374808141,7.40692048737951,312.040735608469,-0.212349200886763,0.000521041828366431,-0.04410194714993,0.00498543750390513,-1.59668223442377
11.25,27.332041267,-1038.702807232,3.482229675,19587.2703412073,13.1999991965903,7.39901379658337,312.024822976966,-0.212554141975078,0.000594045929545428,-0.0447730637369942,0.004410194714993,-1.59677810822192
11.3,27.332041267,-1038.702807232,3.482229675,19587.2703412073,13.1999991965903,7.39901379658337,312.002545292861,-0.212817637660054,0.000484539777776904,-0.0450606851314502,0.00402669952238492,-1.59687398202007
11.35,27.332041267,-1038.702807232,3.482229675,19587.2703412073,13.1999991965903,7.39901379658337,311.989815187658,-0.212788360361723,0.000533209178562921,-0.0454441803240583,0.00364320432977683,-1.59706572961638
11.4,27.237160389,-1038.43381344,3.998250526,19587.2703412073,13.1999991965903,7.39901379658337,311.973902556155,-0.2126712511684,0.000606213279741918,-0.0457318017185144,0.00354733053162481,-1.59716160341453
11.45,27.237160389,-1038.43381344,3.998250526,19586.9422572178,13.1999991965903,7.39901379658337,311.961172450952,-0.212319923588433,0.000606213279741918,-0.0463070445074265,0.00364320432977683,-1.59725747721268
11.5,27.237160389,-1038.43381344,3.998250526,19586.9422572178,13.1999991965903,7.39901379658337,311.945259819449,-0.212437032781755,0.000545376528759411,-0.0467864134981866,0.00373907812792885,-1.59744922480899
11.55,27.237160389,-1038.43381344,3.998250526,19586.9422572178,13.1921899342115,7.39292077324948,311.932529714246,-0.212349200886763,0.000618380629938464,-0.0476492776815548,0.00421844711868896,-1.59754509860714
11.6,26.905822953,-1037.373704512,5.96868116,19586.9422572178,13.1921899342115,7.39292077324948,311.919799609043,-0.212319923588433,0.000715719431510387,-0.048224520470467,0.00450606851314502,-1.59754509860714
11.65,26.905822953,-1037.373704512,5.96868116,19586.9422572178,13.1921899342115,7.39292077324948,311.90388697754,-0.211880764113473,0.000594045929545428,-0.0491832584519872,0.00498543750390513,-1.59754509860714
11.7,26.905822953,-1037.373704512,5.96868116,19586.9422572178,13.1921899342115,7.39292077324948,311.884791819736,-0.211705100323489,0.000606213279741918,-0.0497585012408993,0.0052730588983612,-1.59754509860714
11.75,26.905822953,-1037.373704512,5.96868116,19586.6141732283,13.1921899342115,7.39292077324948,311.868879188233,-0.211734377621819,0.000496707127973395,-0.0505254916261155,0.00556068029281726,-1.59754509860714
11.8,26.734974823,-1036.851827264,6.733016295,19586.6141732283,13.1921899342115,7.39292077324948,311.85614908303,-0.211851486815142,0.000338531575418966,-0.0507172392224195,0.00556068029281726,-1.59744922480899
11.85,26.734974823,-1036.851827264,6.733016295,19586.6141732283,13.1780927916641,7.38972811895644,311.837053925226,-0.211997873306795,0.000521041828366431,-0.0506213654242675,0.00546480649466524,-1.59754509860714
11.9,26.734974823,-1036.851827264,6.733016295,19586.6141732283,13.1780927916641,7.38972811895644,311.824323820023,-0.212114982500118,0.000606213279741918,-0.0501419964335074,0.00536893269651322,-1.59773684620344
11.95,26.734974823,-1036.851827264,6.733016295,19585.3018372703,13.1780927916641,7.38972811895644,311.81159371482,-0.212085705201787,0.000375033626008436,-0.0500461226353554,0.0052730588983612,-1.5978327200016
12,26.376805897,-1036.047408896,7.557034809,19585.3018372703,13.1780927916641,7.38972811895644,311.792498557016,-0.212319923588433,0.000496707127973395,-0.0496626274427473,0.0052730588983612,-1.5978327200016
12.05,26.376805897,-1036.047408896,7.557034809,19585.3018372703,13.1780927916641,7.38972811895644,311.779768451814,-0.212085705201787,0.000448037727187434,-0.0493750060482912,0.00479368990760109,-1.59792859379975
12.1,26.376805897,-1036.047408896,7.557034809,19585.3018372703,13.1780927916641,7.38972811895644,311.76385582031,-0.212232091693441,0.000387200976204982,-0.0493750060482912,0.00469781610944907,-1.5980244675979
12.15,26.376805897,-1036.047408896,7.557034809,19585.3018372703,13.1745029292079,7.38712752966141,311.757490767709,-0.212319923588433,0.000545376528759411,-0.0490873846538352,0.004410194714993,-1.59812034139605
12.2,26.222249268,-1035.51564576,8.091212207,19585.3018372703,13.1745029292079,7.38712752966141,311.741578136206,-0.212524864676747,0.000630547980134899,-0.0487997632593791,0.004410194714993,-1.59812034139605
12.25,26.222249268,-1035.51564576,8.091212207,19583.9895013123,13.1745029292079,7.38712752966141,311.732030557304,-0.212232091693441,0.00047237242758047,-0.048608015663075,0.00431432091684098,-1.5982162151942
12.3,26.222249268,-1035.51564576,8.091212207,19583.9895013123,13.1745029292079,7.38712752966141,311.7161179258,-0.211792932218481,0.000533209178562921,-0.048512141864923,0.00460194231129705,-1.5982162151942
12.35,26.222249268,-1035.51564576,8.091212207,19583.9895013123,13.1745029292079,7.38712752966141,311.706570346898,-0.211441604638513,0.000375033626008436,-0.048224520470467,0.00479368990760109,-1.59831208899236
12.4,25.951293173,-1034.720869184,8.959414004,19583.9895013123,13.1745029292079,7.38712752966141,311.690657715395,-0.212290646290102,0.000484539777776904,-0.0477451514797069,0.00536893269651322,-1.59840796279051
12.45,25.951293173,-1034.720869184,8.959414004,19582.3490813648,13.1745029292079,7.38712752966141,311.681110136493,-0.211968596008465,0.000557543878955957,-0.0473616562870988,0.00565655409096929,-1.59850383658866
12.5,25.951293173,-1034.720869184,8.959414004,19582.3490813648,13.1610952800758,7.39797955646028,311.66519750499,-0.211529436533505,0.000618380629938464,-0.0466905397000346,0.00642354447618546,-1.59859971038681
12.55,25.951293173,-1034.720869184,8.959414004,19582.3490813648,13.1610952800758,7.39797955646028,311.655649926088,-0.211148831655206,0.000557543878955957,-0.0463070445074265,0.00680703966879355,-1.59869558418496
12.6,25.725668375,-1034.179098112,9.199793261,19582.3490813648,13.1610952800758,7.39797955646028,311.646102347186,-0.21132449544519,0.000557543878955957,-0.0457318017185144,0.00757403005400972,-1.59879145798312
12.65,25.725668375,-1034.179098112,9.199793261,19582.3490813648,13.1610952800758,7.39797955646028,311.636554768284,-0.21132449544519,0.000594045929545428,-0.0453483065259063,0.00786165144846579,-1.59888733178127
12.7,25.725668375,-1034.179098112,9.199793261,19582.3490813648,13.1610952800758,7.39797955646028,311.623824663081,-0.211617268428497,0.000594045929545428,-0.0451565589296023,0.0083410204392259,-1.59898320557942
12.75,25.725668375,-1034.179098112,9.199793261,19580.7086614173,13.1610952800758,7.39797955646028,311.611094557878,-0.211529436533505,0.000521041828366431,-0.0449648113332982,0.00853276803552994,-1.59898320557942
12.8,25.434509522,-1033.37919552,9.206681345,19580.7086614173,13.1510301751097,7.40824701275479,311.604729505277,-0.21088533597023,0.000496707127973395,-0.0447730637369942,0.008820389429986,-1.59898320557942
12.85,25.434509522,-1033.37919552,9.206681345,19580.7086614173,13.1510301751097,7.40824701275479,311.591999400074,-0.210826781373569,0.000399368326401417,-0.0445813161406901,0.00901213702629005,-1.59898320557942
12.9,25.434509522,-1033.37919552,9.206681345,19580.7086614173,13.1510301751097,7.40824701275479,311.582451821172,-0.211236663550198,0.000399368326401417,-0.0442936947462341,0.00920388462259409,-1.59888733178127
12.95,25.434509522,-1033.37919552,9.206681345,19578.7401574803,13.1510301751097,7.40824701275479,311.57290424227,-0.211353772743521,0.000435870376990888,-0.04410194714993,0.00920388462259409,-1.59898320557942
13,25.242827417,-1032.853656832,8.976664726,19578.7401574803,13.1510301751097,7.40824701275479,311.563356663368,-0.211412327340182,0.000521041828366431,-0.0436225781591699,0.00929975842074612,-1.59898320557942
13.05,25.242827417,-1032.853656832,8.976664726,19578.7401574803,13.1510301751097,7.40824701275479,311.553809084466,-0.211295218146859,0.000435870376990888,-0.0428555877739537,0.00939563221889814,-1.59898320557942
13.1,25.242827417,-1032.853656832,8.976664726,19578.7401574803,13.1367381757275,7.41178441375553,311.541078979263,-0.211119554356876,0.000253360124043422,-0.0421844711868896,0.00949150601705016,-1.59907907937757
13.15,25.242827417,-1032.853656832,8.976664726,19578.7401574803,13.1367381757275,7.41178441375553,311.52516634776,-0.210826781373569,0.00032636422522242,-0.0416092283979775,0.00958737981520218,-1.59917495317572
13.2,24.929396711,-1032.074990592,8.562489117,19578.7401574803,13.1367381757275,7.41178441375553,311.515618768858,-0.210973167865222,0.000362866275811946,-0.0408422380127613,0.0096832536133542,-1.59927082697388
13.25,24.929396711,-1032.074990592,8.562489117,19576.7716535433,13.1367381757275,7.41178441375553,311.499706137355,-0.211178108953537,0.000338531575418966,-0.0403628690220012,0.00977912741150622,-1.59936670077203
13.3,24.929396711,-1032.074990592,8.562489117,19576.7716535433,13.1367381757275,7.41178441375553,311.480610979551,-0.21132449544519,0.000277694824436459,-0.039691752434937,0.00997087500781027,-1.59955844836833
13.35,24.929396711,-1032.074990592,8.562489117,19576.7716535433,13.1367381757275,7.41178441375553,311.464698348047,-0.2108560586719,0.000411535676597907,-0.0392123834441769,0.0100667488059623,-1.59965432216648
13.4,24.824141753,-1031.841512768,8.399825831,19576.7716535433,13.1161582961766,7.41011314167255,311.445603190243,-0.210709672180246,0.00047237242758047,-0.0387330144534168,0.0105461177967224,-1.59994194356094
13.45,24.824141753,-1031.841512768,8.399825831,19574.8031496063,13.1161582961766,7.41011314167255,311.426508032439,-0.210182680810294,0.000496707127973395,-0.0384453930589607,0.0108337391911785,-1.60013369115724
13.5,24.824141753,-1031.841512768,8.399825831,19574.8031496063,13.1161582961766,7.41011314167255,311.407412874635,-0.210651117583585,0.000435870376990888,-0.0387330144534168,0.0116007295763946,-1.60032543875355
13.55,24.824141753,-1031.841512768,8.399825831,19574.8031496063,13.1161582961766,7.41011314167255,311.388317716831,-0.210387621898609,0.000423703026794453,-0.0402669952238492,0.0127512151542189,-1.600613060148
13.6,24.417235628,-1030.883802112,7.208008041,19574.8031496063,13.1161582961766,7.41011314167255,311.372405085328,-0.20997773972198,0.000399368326401417,-0.0407463642146093,0.013230584144979,-1.60080480774431
13.65,24.417235628,-1030.883802112,7.208008041,19574.8031496063,13.1161582961766,7.41011314167255,311.356492453824,-0.210211958108625,0.00047237242758047,-0.0409381118109133,0.0136140793375871,-1.60090068154246
13.7,24.417235628,-1030.883802112,7.208008041,19574.8031496063,13.0960205917508,7.40638088383703,311.340579822321,-0.210329067301948,0.000521041828366431,-0.0410339856090653,0.0138058269338911,-1.60090068154246
13.75,24.417235628,-1030.883802112,7.208008041,19572.8346456693,13.0960205917508,7.40638088383703,311.324667190818,-0.210475453793601,0.000508874478169941,-0.0413216070035214,0.0134223317412831,-1.60090068154246
13.8,24.212002381,-1030.406594432,6.152904988,19572.8346456693,13.0960205917508,7.40638088383703,311.305572033014,-0.21041689919694,0.000496707127973395,-0.0413216070035214,0.013134710346827,-1.60090068154246
13.85,24.212002381,-1030.406594432,6.152904988,19572.8346456693,13.0960205917508,7.40638088383703,311.28647687521,-0.21088533597023,0.000581878579348938,-0.0408422380127613,0.0121759723653068,-1.60080480774431
13.9,24.212002381,-1030.406594432,6.152904988,19572.8346456693,13.0960205917508,7.40638088383703,311.270564243706,-0.211119554356876,0.00047237242758047,-0.0405546166183052,0.0116966033745467,-1.60080480774431
13.95,24.212002381,-1030.406594432,6.152904988,19571.5223097113,13.0960205917508,7.40638088383703,311.248286559602,-0.211617268428497,0.000399368326401417,-0.0401711214256971,0.0111213605856345,-1.60070893394616
14,23.952379587,-1029.655633088,5.137375999,19571.5223097113,13.0866374857065,7.40328565796138,311.229191401797,-0.211617268428497,0.000362866275811946,-0.039691752434937,0.0106419915948744,-1.600613060148
14.05,23.952379587,-1029.655633088,5.137375999,19571.5223097113,13.0866374857065,7.40328565796138,311.213278770294,-0.211822209516811,0.000375033626008436,-0.0383495192608087,0.0104502439985704,-1.60051718634985
14.1,23.952379587,-1029.655633088,5.137375999,19571.5223097113,13.0866374857065,7.40328565796138,311.19418361249,-0.211675823025158,0.000411535676597907,-0.0374866550774405,0.0107378653930264,-1.600613060148
14.15,23.952379587,-1029.655633088,5.137375999,19571.5223097113,13.0866374857065,7.40328565796138,311.178270980987,-0.211910041411803,0.000435870376990888,-0.0361444219033122,0.0113131081819386,-1.600613060148
