time_s,north_vel_fps,east_vel_fps,down_vel_fps,height_ft,total_pres_psi,static_pres_psi,total_temp_K,aoa_rad,aos_rad,roll_angle_rad,pitch_angle_rad,true_heading_rad
0,-18.707933166,-1106.865638848,63.355177824,20521.6535433071,14.0465547153196,6.9115419518971,321.516419538132,-0.218569861558347,-0.0164776618346691,-0.0181201478507321,-0.0390206358478729,-1.62755359742872
0.05,-18.707933166,-1106.865638848,63.355177824,20521.6535433071,14.0465547153196,6.9115419518971,321.525914978973,-0.218773912364887,-0.016405594155938,-0.0173531574655159,-0.0390206358478729,-1.62736184983242
0.1,-18.707933166,-1106.865638848,63.355177824,20521.6535433071,14.0465547153196,6.9115419518971,321.532245272867,-0.218686462019227,-0.0163095039176299,-0.0161067980895397,-0.0390206358478729,-1.62717010223611
0.15,-18.707933166,-1106.865638848,63.355177824,20521.6535433071,14.0647288624102,6.91753005231996,321.532245272867,-0.218628161788787,-0.0162974926378413,-0.0153398077043235,-0.0389247620497208,-1.62697835463981
0.2,-18.915397603,-1106.969623744,60.474005944,20521.6535433071,14.0647288624102,6.91753005231996,321.532245272867,-0.218773912364887,-0.0163455377569954,-0.0143810697228033,-0.0386371406552648,-1.6265948594472
0.25,-18.915397603,-1106.969623744,60.474005944,20505.5774278215,14.0647288624102,6.91753005231996,321.532245272867,-0.218773912364887,-0.0163335264772069,-0.0139017007320432,-0.0382536454626567,-1.62621136425459
0.3,-18.915397603,-1106.969623744,60.474005944,20505.5774278215,14.0647288624102,6.91753005231996,321.532245272867,-0.218890512825767,-0.0164176054357266,-0.013230584144979,-0.0375825288755925,-1.62544437386938
0.35,-18.915397603,-1106.969623744,60.474005944,20505.5774278215,14.0647288624102,6.91753005231996,321.52908012592,-0.218803062480107,-0.0164896731144577,-0.0126553413560669,-0.0371031598848324,-1.62496500487862
0.4,-18.959676236,-1107.005994048,59.649136908,20505.5774278215,14.0647288624102,6.91753005231996,321.52908012592,-0.218715612134447,-0.0165377182336118,-0.0116007295763946,-0.0361444219033122,-1.62438976208971
0.45,-18.959676236,-1107.005994048,59.649136908,20490.1574803149,14.0796129267904,6.92318090052876,321.525914978973,-0.218365810751807,-0.0166698423112855,-0.0103543702004184,-0.0355691791144001,-1.6240062668971
0.5,-18.959676236,-1107.005994048,59.649136908,20490.1574803149,14.0796129267904,6.92318090052876,321.516419538132,-0.218482411212687,-0.0166458197517084,-0.00814927284292185,-0.0347063149310319,-1.62371864550264
0.55,-18.959676236,-1107.005994048,59.649136908,20490.1574803149,14.0796129267904,6.92318090052876,321.516419538132,-0.218569861558347,-0.0166458197517084,-0.00642354447618546,-0.0344186935365758,-1.62362277170449
0.6,-19.115235947,-1107.127553856,56.245595774,20490.1574803149,14.0796129267904,6.92318090052876,321.513254391185,-0.218773912364887,-0.0166458197517084,-0.00354733053162481,-0.0341310721421198,-1.62362277170449
0.65,-19.115235947,-1107.127553856,56.245595774,20490.1574803149,14.0796129267904,6.92318090052876,321.516419538132,-0.218744762249667,-0.0166578310314969,-0.00172572836673639,-0.0340351983439677,-1.62381451930079
0.7,-19.115235947,-1107.127553856,56.245595774,20490.1574803149,14.0796129267904,6.92318090052876,321.516419538132,-0.218890512825767,-0.0166698423112855,0.000958737981520218,-0.0341310721421198,-1.62391039309895
0.75,-19.115235947,-1107.127553856,56.245595774,20475.7217847769,14.087129903917,6.92808979386665,321.516419538132,-0.219007113286647,-0.0166097859123429,0.00268446634825661,-0.0342269459402718,-1.6241980144934
0.8,-19.218122411,-1107.150865024,54.601441398,20475.7217847769,14.087129903917,6.92808979386665,321.516419538132,-0.219182013977967,-0.0165737520729773,0.00517718510020918,-0.0340351983439677,-1.62438976208971
0.85,-19.218122411,-1107.150865024,54.601441398,20475.7217847769,14.087129903917,6.92808979386665,321.522749832026,-0.219269464323627,-0.0165497295134002,0.0066152920724895,-0.0337475769495117,-1.62467738348416
0.9,-19.218122411,-1107.150865024,54.601441398,20475.7217847769,14.087129903917,6.92808979386665,321.522749832026,-0.219182013977967,-0.0164896731144577,0.00776577765031377,-0.0332682079587516,-1.62496500487862
0.95,-19.218122411,-1107.150865024,54.601441398,20461.9422572178,14.087129903917,6.92808979386665,321.525914978973,-0.218977963171427,-0.0165016843942462,0.00901213702629005,-0.0323094699772313,-1.62506087867677
1,-19.146567957,-1107.23715296,52.260350988,20461.9422572178,14.087129903917,6.92808979386665,321.525914978973,-0.218773912364887,-0.0165136956740347,0.0100667488059623,-0.0310631106012551,-1.62515675247492
1.05,-19.146567957,-1107.23715296,52.260350988,20461.9422572178,14.0964605485058,6.93290125878714,321.519584685079,-0.218628161788787,-0.0165136956740347,0.0105461177967224,-0.0301043726197348,-1.62515675247492
1.1,-19.146567957,-1107.23715296,52.260350988,20461.9422572178,14.0964605485058,6.93290125878714,321.516419538132,-0.218511561327907,-0.0165617407931888,0.0111213605856345,-0.0286662656474545,-1.62506087867677
1.15,-19.146567957,-1107.23715296,52.260350988,20461.9422572178,14.0964605485058,6.93290125878714,321.503758950344,-0.218278360406148,-0.0165497295134002,0.0114089819800906,-0.0276116538677823,-1.62486913108047
1.2,-19.017437359,-1107.271570496,50.606863754,20461.9422572178,14.0964605485058,6.93290125878714,321.494263509503,-0.218074309599608,-0.0165617407931888,0.0120800985671547,-0.026461168289958,-1.62467738348416
1.25,-19.017437359,-1107.271570496,50.606863754,20448.4908136483,14.0964605485058,6.93290125878714,321.478437774768,-0.217870258793068,-0.0165857633527658,0.0125594675579149,-0.0255024303084378,-1.62458150968601
1.3,-19.017437359,-1107.271570496,50.606863754,20448.4908136483,14.0964605485058,6.93290125878714,321.468942333927,-0.217724508216968,-0.0165977746325544,0.0134223317412831,-0.0246395661250696,-1.62438976208971
1.35,-19.017437359,-1107.271570496,50.606863754,20448.4908136483,14.0929231475051,6.93766775674576,321.456281746139,-0.217928559023508,-0.0165617407931888,0.0139975745301952,-0.0239684495380054,-1.62438976208971
1.4,-18.819650947,-1107.291098176,47.548714646,20448.4908136483,14.0929231475051,6.93766775674576,321.453116599192,-0.218103459714828,-0.0165857633527658,0.0151480601080194,-0.0234890805472453,-1.62429388829155
1.45,-18.819650947,-1107.291098176,47.548714646,20436.0236220472,14.0929231475051,6.93766775674576,321.443621158352,-0.217957709138728,-0.0165016843942462,0.0158191766950836,-0.0230097115564852,-1.62429388829155
1.5,-18.819650947,-1107.291098176,47.548714646,20436.0236220472,14.0929231475051,6.93766775674576,321.440456011405,-0.218045159484388,-0.0165257069538233,0.0167779146766038,-0.0227220901620292,-1.6241980144934
1.55,-18.819650947,-1107.291098176,47.548714646,20436.0236220472,14.0929231475051,6.93766775674576,321.434125717511,-0.218045159484388,-0.0165497295134002,0.0171614098692119,-0.0223385949694211,-1.6241980144934
1.6,-18.71022538,-1107.295369856,45.202990226,20436.0236220472,14.0929231475051,6.93766775674576,321.427795423617,-0.218074309599608,-0.0165617407931888,0.017449031263668,-0.022050973574965,-1.6241980144934
1.65,-18.71022538,-1107.295369856,45.202990226,20423.8845144357,14.0900227784642,6.94228436483147,321.42463027667,-0.218278360406148,-0.0165497295134002,0.01754490506182,-0.0216674783823569,-1.6241980144934
1.7,-18.71022538,-1107.295369856,45.202990226,20423.8845144357,14.0900227784642,6.94228436483147,321.427795423617,-0.218365810751807,-0.0165617407931888,0.017736652658124,-0.0209963617952928,-1.62410214069525
1.75,-18.71022538,-1107.295369856,45.202990226,20423.8845144357,14.0900227784642,6.94228436483147,321.430960570564,-0.218278360406148,-0.0165617407931888,0.017640778859972,-0.0204211190063806,-1.62410214069525
1.8,-18.530269418,-1107.272913024,41.846738878,20423.8845144357,14.0900227784642,6.94228436483147,321.427795423617,-0.218132609830048,-0.0165737520729773,0.017736652658124,-0.0197500024193165,-1.6241980144934
1.85,-18.530269418,-1107.272913024,41.846738878,20423.8845144357,14.0900227784642,6.94228436483147,321.427795423617,-0.217928559023508,-0.0165617407931888,0.0178325264562761,-0.0187912644377963,-1.62410214069525
1.9,-18.530269418,-1107.272913024,41.846738878,20423.8845144357,14.0900227784642,6.94228436483147,321.42463027667,-0.217986859253948,-0.0165617407931888,0.0179284002544281,-0.017640778859972,-1.6241980144934
1.95,-18.530269418,-1107.272913024,41.846738878,20412.7296587926,14.1066305763829,6.9469534343727,321.418299982776,-0.218132609830048,-0.0166097859123429,0.0181201478507321,-0.0169696622729079,-1.6241980144934
2,-18.375939722,-1107.2743776,39.481036726,20412.7296587926,14.1066305763829,6.9469534343727,321.415134835829,-0.218016009369168,-0.0165857633527658,0.0185995168414922,-0.0152439339061715,-1.62429388829155
2.05,-18.375939722,-1107.2743776,39.481036726,20412.7296587926,14.1066305763829,6.9469534343727,321.408804541935,-0.217782808447408,-0.0165977746325544,0.0183118954470362,-0.0152439339061715,-1.62429388829155
2.1,-18.375939722,-1107.2743776,39.481036726,20412.7296587926,14.1066305763829,6.9469534343727,321.402474248041,-0.217607907756088,-0.0165737520729773,0.0183118954470362,-0.0142851959246512,-1.62429388829155
2.15,-18.375939722,-1107.2743776,39.481036726,20412.7296587926,14.1066305763829,6.9469534343727,321.396143954147,-0.217520457410428,-0.0165617407931888,0.017449031263668,-0.0138058269338911,-1.62438976208971
2.2,-18.127268829,-1107.199440128,35.955443778,20412.7296587926,14.1066305763829,6.9469534343727,321.386648513306,-0.217782808447408,-0.0165016843942462,0.0163944194839957,-0.013134710346827,-1.62429388829155
2.25,-18.127268829,-1107.199440128,35.955443778,20402.5590551181,14.102208825132,6.95073065917009,321.380318219412,-0.217957709138728,-0.0164296167155151,0.0160109242913876,-0.0127512151542189,-1.62438976208971
2.3,-18.127268829,-1107.199440128,35.955443778,20402.5590551181,14.102208825132,6.95073065917009,321.373987925518,-0.217870258793068,-0.0165257069538233,0.0149563125117154,-0.0122718461634588,-1.62429388829155
2.35,-18.127268829,-1107.199440128,35.955443778,20402.5590551181,14.102208825132,6.95073065917009,321.367657631624,-0.217637057871308,-0.0165617407931888,0.0140934483283472,-0.0119842247690027,-1.6241980144934
2.4,-17.962115001,-1107.115593152,33.432639152,20402.5590551181,14.102208825132,6.95073065917009,321.364492484677,-0.217782808447408,-0.0165737520729773,0.0128470889523709,-0.0116007295763946,-1.6240062668971
2.45,-17.962115001,-1107.115593152,33.432639152,20393.0446194226,14.102208825132,6.95073065917009,321.36132733773,-0.218249210290928,-0.0166097859123429,0.0123677199616108,-0.0112172343837865,-1.62371864550264
2.5,-17.962115001,-1107.115593152,33.432639152,20393.0446194226,14.102208825132,6.95073065917009,321.354997043836,-0.218278360406148,-0.0165977746325544,0.0120800985671547,-0.0107378653930264,-1.62371864550264
2.55,-17.962115001,-1107.115593152,33.432639152,20393.0446194226,14.102208825132,6.95073065917009,321.348666749943,-0.217928559023508,-0.0165977746325544,0.0121759723653068,-0.0100667488059623,-1.62371864550264
2.6,-17.794165511,-1106.979753728,29.53330853,20393.0446194226,14.0993084560911,6.95446291700562,321.345501602996,-0.217986859253948,-0.0165977746325544,0.0126553413560669,-0.00939563221889814,-1.62391039309895
2.65,-17.794165511,-1106.979753728,29.53330853,20384.842519685,14.0993084560911,6.95446291700562,321.342336456049,-0.217899408908288,-0.0165497295134002,0.0125594675579149,-0.00872451563183398,-1.6240062668971
2.7,-17.794165511,-1106.979753728,29.53330853,20384.842519685,14.0993084560911,6.95446291700562,321.336006162155,-0.218045159484388,-0.0165016843942462,0.0126553413560669,-0.00776577765031377,-1.62429388829155
2.75,-17.794165511,-1106.979753728,29.53330853,20384.842519685,14.0993084560911,6.95446291700562,321.329675868261,-0.217928559023508,-0.0165377182336118,0.0124635937597628,-0.00699878726509759,-1.62438976208971
2.8,-17.75209137,-1106.900788672,27.509377011,20384.842519685,14.0993084560911,6.95446291700562,321.332841015208,-0.217899408908288,-0.0164656505548806,0.0119842247690027,-0.00604004928357737,-1.62448563588786
2.85,-17.75209137,-1106.900788672,27.509377011,20384.842519685,14.0993084560911,6.95446291700562,321.332841015208,-0.217695358101748,-0.0164776618346691,0.0115048557782426,-0.0052730588983612,-1.62448563588786
2.9,-17.75209137,-1106.900788672,27.509377011,20384.842519685,14.0966554053406,6.95761060433678,321.329675868261,-0.217724508216968,-0.0164776618346691,0.0108337391911785,-0.00469781610944907,-1.62458150968601
2.95,-17.75209137,-1106.900788672,27.509377011,20377.2965879265,14.0966554053406,6.95761060433678,321.326510721314,-0.217578757640868,-0.0165016843942462,0.00958737981520218,-0.00383495192608087,-1.62429388829155
3,-17.511710206,-1106.679515648,23.88965645,20377.2965879265,14.0966554053406,6.95761060433678,321.323345574367,-0.217782808447408,-0.0164656505548806,0.00853276803552994,-0.0030679615408647,-1.6241980144934
3.05,-17.511710206,-1106.679515648,23.88965645,20377.2965879265,14.0966554053406,6.95761060433678,321.317015280473,-0.217549607525648,-0.0166097859123429,0.00786165144846579,-0.00278034014640863,-1.62391039309895
3.1,-17.511710206,-1106.679515648,23.88965645,20377.2965879265,14.0966554053406,6.95761060433678,321.304354692685,-0.217782808447408,-0.01663380847192,0.00709466106324961,-0.00239684495380055,-1.62381451930079
3.15,-17.511710206,-1106.679515648,23.88965645,20370.7349081365,14.0966554053406,6.95761060433678,321.294859251844,-0.217811958562628,-0.0166458197517084,0.00671116587064153,-0.00230097115564852,-1.62362277170449
3.2,-17.401962356,-1106.550388864,21.458456476,20370.7349081365,14.1035353505073,6.96055594033951,321.285363811003,-0.217928559023508,-0.0164896731144577,0.0066152920724895,-0.0022050973574965,-1.62371864550264
3.25,-17.401962356,-1106.550388864,21.458456476,20370.7349081365,14.1035353505073,6.96055594033951,321.279033517109,-0.218132609830048,-0.0164176054357266,0.00699878726509759,-0.0022050973574965,-1.62371864550264
3.3,-17.401962356,-1106.550388864,21.458456476,20370.7349081365,14.1035353505073,6.96055594033951,321.272703223215,-0.217957709138728,-0.0164536392750921,0.00680703966879355,-0.00201334976119246,-1.62391039309895
3.35,-17.401962356,-1106.550388864,21.458456476,20370.7349081365,14.1035353505073,6.96055594033951,321.285363811003,-0.218132609830048,-0.0164296167155151,0.00623179687988142,-0.00210922355934448,-1.62391039309895
3.4,-17.352134353,-1106.328139456,17.901825196,20370.7349081365,14.1035353505073,6.96055594033951,321.291694104897,-0.218103459714828,-0.0164776618346691,0.00460194231129705,-0.00172572836673639,-1.62381451930079
3.45,-17.352134353,-1106.328139456,17.901825196,20365.1574803149,14.1035353505073,6.96055594033951,321.304354692685,-0.218307510521368,-0.0165377182336118,0.00354733053162481,-0.00143810697228033,-1.62381451930079
3.5,-17.352134353,-1106.328139456,17.901825196,20365.1574803149,14.084866566836,6.96311156267267,321.313850133526,-0.218132609830048,-0.0166097859123429,0.0022050973574965,-0.000958737981520218,-1.62362277170449
3.55,-17.352134353,-1106.328139456,17.901825196,20365.1574803149,14.084866566836,6.96311156267267,321.329675868261,-0.218249210290928,-0.0166097859123429,0.000958737981520218,-0.000479368990760109,-1.62352689790634
3.6,-17.269999863,-1106.153122624,15.754722454,20365.1574803149,14.084866566836,6.96311156267267,321.342336456049,-0.218511561327907,-0.0166578310314969,-9.58737981520218e-05,9.58737981520218e-05,-1.62352689790634
3.65,-17.269999863,-1106.153122624,15.754722454,20360.5643044619,14.084866566836,6.96311156267267,321.358162190783,-0.218482411212687,-0.016681853591074,-0.000479368990760109,0.000766990385216174,-1.62371864550264
3.7,-17.269999863,-1106.153122624,15.754722454,20360.5643044619,14.084866566836,6.96311156267267,321.373987925518,-0.218394960867027,-0.016681853591074,9.58737981520218e-05,0.00134223317412831,-1.6240062668971
3.75,-17.269999863,-1106.153122624,15.754722454,20360.5643044619,14.084866566836,6.96311156267267,321.3929788072,-0.218278360406148,-0.016681853591074,0.000575242788912131,0.00191747596304044,-1.62438976208971
3.8,-17.300250604,-1105.8708256,12.65550038,20360.5643044619,14.1270081046054,6.96492523013492,321.408804541935,-0.218540711443127,-0.0166097859123429,0.00115048557782426,0.00210922355934448,-1.62477325728231
3.85,-17.300250604,-1105.8708256,12.65550038,20360.5643044619,14.1270081046054,6.96492523013492,321.42463027667,-0.218657311904007,-0.0165497295134002,0.00134223317412831,0.00278034014640863,-1.62515675247492
3.9,-17.300250604,-1105.8708256,12.65550038,20360.5643044619,14.1270081046054,6.96492523013492,321.437290864458,-0.218744762249667,-0.0165497295134002,0.00115048557782426,0.00316383533901672,-1.62554024766753
3.95,-17.300250604,-1105.8708256,12.65550038,20356.6272965879,14.1270081046054,6.96492523013492,321.453116599192,-0.218628161788787,-0.0165257069538233,0.000575242788912131,0.00345145673347278,-1.62573199526383
4,-17.285999593,-1105.694588288,10.695952995,20356.6272965879,14.1270081046054,6.96492523013492,321.46577718698,-0.218686462019227,-0.0165377182336118,-0.000287621394456065,0.00373907812792885,-1.62592374286014
4.05,-17.285999593,-1105.694588288,10.695952995,20356.6272965879,14.1270081046054,6.96492523013492,321.478437774768,-0.218657311904007,-0.0165497295134002,-0.000958737981520218,0.00402669952238492,-1.62592374286014
4.1,-17.285999593,-1105.694588288,10.695952995,20356.6272965879,14.1205778290574,6.96644661234498,321.491098362556,-0.218773912364887,-0.0165016843942462,-0.00210922355934448,0.00412257332053694,-1.62592374286014
4.15,-17.285999593,-1105.694588288,10.695952995,20353.6745406824,14.1205778290574,6.96644661234498,321.49742865645,-0.218948813056207,-0.0165016843942462,-0.00268446634825661,0.00421844711868896,-1.62592374286014
4.2,-17.147602882,-1105.364570496,8.171607513,20353.6745406824,14.1205778290574,6.96644661234498,321.49742865645,-0.219065413517087,-0.0165016843942462,-0.00383495192608087,0.00421844711868896,-1.62582786906199
4.25,-17.147602882,-1105.364570496,8.171607513,20353.6745406824,14.1205778290574,6.96644661234498,321.49742865645,-0.219036263401867,-0.0164776618346691,-0.004410194714993,0.00421844711868896,-1.62582786906199
4.3,-17.147602882,-1105.364570496,8.171607513,20353.6745406824,14.1205778290574,6.96644661234498,321.49742865645,-0.219211164093187,-0.0164776618346691,-0.00546480649466524,0.00421844711868896,-1.62573199526383
4.35,-17.147602882,-1105.364570496,8.171607513,20353.6745406824,14.1205778290574,6.96644661234498,321.500593803397,-0.219298614438847,-0.0164896731144577,-0.00594417548542535,0.00421844711868896,-1.62563612146568
4.4,-17.164929884,-1105.121939072,6.759414896,20353.6745406824,14.1083468154278,6.96757828088547,321.500593803397,-0.219415214899727,-0.0164536392750921,-0.00690291346694557,0.004410194714993,-1.62563612146568
4.45,-17.164929884,-1105.121939072,6.759414896,20351.7060367454,14.1083468154278,6.96757828088547,321.500593803397,-0.219473515130167,-0.0164776618346691,-0.00776577765031377,0.00469781610944907,-1.62554024766753
4.5,-17.164929884,-1105.121939072,6.759414896,20351.7060367454,14.1083468154278,6.96757828088547,321.49742865645,-0.219502665245387,-0.0165257069538233,-0.00910801082444207,0.00508131130205716,-1.62544437386938
4.55,-17.164929884,-1105.121939072,6.759414896,20351.7060367454,14.1083468154278,6.96757828088547,321.500593803397,-0.219444365014947,-0.0165257069538233,-0.00958737981520218,0.00536893269651322,-1.62525262627307
4.6,-17.224544611,-1104.778862144,4.934558921,20351.7060367454,14.104809414427,6.96832023575639,321.503758950344,-0.219386064784507,-0.0165617407931888,-0.0103543702004184,0.00584830168727333,-1.62525262627307
4.65,-17.224544611,-1104.778862144,4.934558921,20350.0656167979,14.104809414427,6.96832023575639,321.510089244238,-0.219386064784507,-0.0165497295134002,-0.0109296129893305,0.00594417548542535,-1.62515675247492
4.7,-17.224544611,-1104.778862144,4.934558921,20350.0656167979,14.104809414427,6.96832023575639,321.513254391185,-0.219036263401867,-0.0165257069538233,-0.0120800985671547,0.00623179687988142,-1.62515675247492
4.75,-17.224544611,-1104.778862144,4.934558921,20350.0656167979,14.104809414427,6.96832023575639,321.519584685079,-0.219415214899727,-0.0165737520729773,-0.0125594675579149,0.00604004928357737,-1.62515675247492
4.8,-17.268624916,-1104.551242624,3.950360035,20350.0656167979,14.104809414427,6.96832023575639,321.519584685079,-0.219356914669287,-0.0166217971921314,-0.013230584144979,0.00604004928357737,-1.62515675247492
4.85,-17.268624916,-1104.551242624,3.950360035,20350.0656167979,14.104809414427,6.96832023575639,321.52908012592,-0.219502665245387,-0.0165497295134002,-0.0135182055394351,0.00584830168727333,-1.62525262627307
4.9,-17.268624916,-1104.551242624,3.950360035,20350.0656167979,14.1030407139267,6.96865748797044,321.522749832026,-0.219473515130167,-0.0165257069538233,-0.013326457943131,0.00565655409096929,-1.62534850007123
4.95,-17.268624916,-1104.551242624,3.950360035,20349.0813648294,14.1030407139267,6.96865748797044,321.522749832026,-0.219706716051926,-0.0165617407931888,-0.013326457943131,0.00536893269651322,-1.62554024766753
5,-17.382131463,-1104.208775936,2.349021623,20349.0813648294,14.1030407139267,6.96865748797044,321.516419538132,-0.219910766858466,-0.0164656505548806,-0.0137099531357391,0.00498543750390513,-1.62573199526383
5.05,-17.382131463,-1104.208775936,2.349021623,20349.0813648294,14.1030407139267,6.96865748797044,321.513254391185,-0.219998217204126,-0.0164896731144577,-0.0140934483283472,0.00488956370575311,-1.62573199526383
5.1,-17.382131463,-1104.208775936,2.349021623,20349.0813648294,14.1030407139267,6.96865748797044,321.506924097291,-0.220173117895446,-0.0164536392750921,-0.0149563125117154,0.00431432091684098,-1.62573199526383
5.15,-17.382131463,-1104.208775936,2.349021623,20348.4251968504,14.1030407139267,6.96865748797044,321.500593803397,-0.219939916973686,-0.016405594155938,-0.0157233028969316,0.00450606851314502,-1.62582786906199
5.2,-17.428471563,-1103.991042304,1.617063534,20348.4251968504,14.0706270289093,6.96909966309553,321.491098362556,-0.220318868471546,-0.0164536392750921,-0.0162985456858437,0.00421844711868896,-1.62563612146568
5.25,-17.428471563,-1103.991042304,1.617063534,20348.4251968504,14.0706270289093,6.96909966309553,321.481602921715,-0.220522919278086,-0.0163455377569954,-0.0170655360710599,0.00431432091684098,-1.62563612146568
5.3,-17.428471563,-1103.991042304,1.617063534,20348.4251968504,14.0706270289093,6.96909966309553,321.478437774768,-0.220522919278086,-0.0162734700782643,-0.0182160216488841,0.00450606851314502,-1.62534850007123
5.35,-17.428471563,-1103.991042304,1.617063534,20348.4251968504,14.0706270289093,6.96909966309553,321.475272627821,-0.220231418125886,-0.0163335264772069,-0.0188871382359483,0.00488956370575311,-1.62525262627307
5.4,-17.520049517,-1103.639422016,1.126975976,20348.4251968504,14.0706270289093,6.96909966309553,321.468942333927,-0.220114817665006,-0.0162494475186872,-0.0203252452082286,0.0052730588983612,-1.62486913108047
5.45,-17.520049517,-1103.639422016,1.126975976,20348.0971128609,14.0706270289093,6.96909966309553,321.459446893086,-0.220027367319346,-0.0163575490367839,-0.0209963617952928,0.00565655409096929,-1.62448563588786
5.5,-17.520049517,-1103.639422016,1.126975976,20348.0971128609,14.0575116650295,6.96900223467814,321.453116599192,-0.220435468932426,-0.016381571596361,-0.0212839831897488,0.00623179687988142,-1.62381451930079
5.55,-17.520049517,-1103.639422016,1.126975976,20348.0971128609,14.0575116650295,6.96900223467814,321.440456011405,-0.220289718356326,-0.0165257069538233,-0.0207087404008367,0.0066152920724895,-1.62343102410818
5.6,-17.610837973,-1103.382388928,0.816640331,20348.0971128609,14.0575116650295,6.96900223467814,321.434125717511,-0.219939916973686,-0.0166698423112855,-0.0191747596304044,0.00709466106324961,-1.62266403372297
5.65,-17.610837973,-1103.382388928,0.816640331,20348.0971128609,14.0575116650295,6.96900223467814,321.42463027667,-0.219823316512806,-0.0167058761506511,-0.017736652658124,0.00728640865955366,-1.62228053853036
5.7,-17.610837973,-1103.382388928,0.816640331,20348.0971128609,14.0575116650295,6.96900223467814,321.411969688882,-0.219910766858466,-0.016681853591074,-0.0144769435209553,0.0074781562558577,-1.62208879093406
5.75,-17.610837973,-1103.382388928,0.816640331,20348.0971128609,14.0575116650295,6.96900223467814,321.399309101094,-0.220318868471546,-0.016681853591074,-0.0121759723653068,0.00728640865955366,-1.6219929171359
5.8,-17.814065056,-1102.940086976,0.286460005,20348.0971128609,14.0430697757743,6.96900223467814,321.383483366359,-0.220318868471546,-0.0166217971921314,-0.00977912741150622,0.00728640865955366,-1.62208879093406
5.85,-17.814065056,-1102.940086976,0.286460005,20348.0971128609,14.0430697757743,6.96900223467814,321.364492484677,-0.220231418125886,-0.0165977746325544,-0.00632767067803344,0.00690291346694557,-1.62228053853036
5.9,-17.814065056,-1102.940086976,0.286460005,20348.0971128609,14.0430697757743,6.96900223467814,321.35183189689,-0.220260568241106,-0.0165857633527658,-0.00335558293532076,0.00651941827433748,-1.62247228612666
5.95,-17.814065056,-1102.940086976,0.286460005,20348.4251968504,14.0430697757743,6.96900223467814,321.339171309102,-0.220231418125886,-0.0165977746325544,-0.00201334976119246,0.00623179687988142,-1.62256815992482
6,-17.902219945,-1102.656813568,-0.119050196,20348.4251968504,14.0430697757743,6.96900223467814,321.329675868261,-0.220493769162866,-0.0165857633527658,-0.000575242788912131,0.00584830168727333,-1.62256815992482
6.05,-17.902219945,-1102.656813568,-0.119050196,20348.4251968504,14.0430697757743,6.96900223467814,321.323345574367,-0.220785270315066,-0.0166097859123429,0,0.00556068029281726,-1.62256815992482
6.1,-17.902219945,-1102.656813568,-0.119050196,20348.4251968504,14.027743536269,6.96930201442396,321.310684986579,-0.220610369623746,-0.0166458197517084,0.00115048557782426,0.00536893269651322,-1.62247228612666
6.15,-17.902219945,-1102.656813568,-0.119050196,20348.4251968504,14.027743536269,6.96930201442396,321.291694104897,-0.220377168701986,-0.0166458197517084,0.00210922355934448,0.00536893269651322,-1.62247228612666
6.2,-17.805802025,-1102.188881536,-0.322897054,20348.4251968504,14.027743536269,6.96930201442396,321.275868370162,-0.220143967780226,-0.0165257069538233,0.00335558293532076,0.00536893269651322,-1.62256815992482
6.25,-17.805802025,-1102.188881536,-0.322897054,20348.4251968504,14.027743536269,6.96930201442396,321.263207782374,-0.221105921582485,-0.0165257069538233,0.00421844711868896,0.0052730588983612,-1.62247228612666
6.3,-17.805802025,-1102.188881536,-0.322897054,20348.4251968504,14.027743536269,6.96930201442396,321.250547194587,-0.220785270315066,-0.0165136956740347,0.00508131130205716,0.00565655409096929,-1.62256815992482
6.35,-17.805802025,-1102.188881536,-0.322897054,20348.4251968504,14.027743536269,6.96930201442396,321.244216900693,-0.220114817665006,-0.0165257069538233,0.00546480649466524,0.00594417548542535,-1.62247228612666
6.4,-17.794224628,-1102.02448288,-0.344610156,20348.4251968504,14.0181655733899,6.96880737784335,321.231556312905,-0.219415214899727,-0.0165857633527658,0.00642354447618546,0.00623179687988142,-1.62237641232851
6.45,-17.794224628,-1102.02448288,-0.344610156,20349.0813648294,14.0181655733899,6.96880737784335,321.218895725117,-0.219794166397586,-0.0165857633527658,0.00728640865955366,0.00642354447618546,-1.62228053853036
6.5,-17.794224628,-1102.02448288,-0.344610156,20349.0813648294,14.0181655733899,6.96880737784335,321.209400284276,-0.220872720660726,-0.0165857633527658,0.00872451563183398,0.00651941827433748,-1.6219929171359
6.55,-17.794224628,-1102.02448288,-0.344610156,20349.0813648294,14.0181655733899,6.96880737784335,321.199904843435,-0.220639519738966,-0.0166458197517084,0.00977912741150622,0.00671116587064153,-1.62208879093406
6.6,-17.65841953,-1101.376285952,-0.592588808,20349.0813648294,14.0181655733899,6.96880737784335,321.190409402594,-0.219969067088906,-0.01663380847192,0.0116966033745467,0.0066152920724895,-1.6219929171359
6.65,-17.65841953,-1101.376285952,-0.592588808,20349.4094488189,14.0181655733899,6.96880737784335,321.177748814806,-0.219765016282366,-0.0165617407931888,0.0127512151542189,0.00651941827433748,-1.62208879093406
6.7,-17.65841953,-1101.376285952,-0.592588808,20349.4094488189,14.011735297842,6.96880737784335,321.165088227019,-0.220143967780226,-0.0165136956740347,0.0139017007320432,0.00623179687988142,-1.62228053853036
6.75,-17.65841953,-1101.376285952,-0.592588808,20349.4094488189,14.011735297842,6.96880737784335,321.158757933125,-0.220522919278086,-0.0164536392750921,0.0143810697228033,0.00604004928357737,-1.62237641232851
6.8,-17.588123696,-1101.002819072,-0.791057926,20349.4094488189,14.011735297842,6.96880737784335,321.152427639231,-0.220493769162866,-0.0165016843942462,0.0143810697228033,0.00565655409096929,-1.62218466473221
6.85,-17.588123696,-1101.002819072,-0.791057926,20349.4094488189,14.011735297842,6.96880737784335,321.14293219839,-0.220843570545506,-0.0165257069538233,0.0143810697228033,0.00517718510020918,-1.62208879093406
6.9,-17.588123696,-1101.002819072,-0.791057926,20349.4094488189,14.011735297842,6.96880737784335,321.136601904496,-0.220843570545506,-0.0165497295134002,0.0142851959246512,0.00498543750390513,-1.62189704333775
6.95,-17.588123696,-1101.002819072,-0.791057926,20349.4094488189,14.011735297842,6.96880737784335,321.133436757549,-0.220493769162866,-0.0165617407931888,0.0137099531357391,0.00469781610944907,-1.6216094219433
7,-17.377718665,-1100.427728896,-0.971603151,20350.0656167979,14.0148305237176,6.96900223467814,321.127106463655,-0.220785270315066,-0.0166097859123429,0.013038836548675,0.00431432091684098,-1.62122592675069
7.05,-17.377718665,-1100.427728896,-0.971603151,20350.0656167979,14.0148305237176,6.96900223467814,321.114445875867,-0.221047621352045,-0.0166097859123429,0.0127512151542189,0.00421844711868896,-1.62113005295254
7.1,-17.377718665,-1100.427728896,-0.971603151,20350.0656167979,14.0148305237176,6.96900223467814,321.108115581973,-0.221047621352045,-0.0166097859123429,0.0125594675579149,0.00421844711868896,-1.62084243155808
7.15,-17.377718665,-1100.427728896,-0.971603151,20350.0656167979,14.0148305237176,6.96900223467814,321.092289847238,-0.220435468932426,-0.0167539212698051,0.0126553413560669,0.00431432091684098,-1.62074655775993
7.2,-17.286377179,-1100.018624,-0.747465813,20350.3937007874,14.0148305237176,6.96900223467814,321.073298965557,-0.220318868471546,-0.0167659325495936,0.0129429627505229,0.004410194714993,-1.62084243155808
7.25,-17.286377179,-1100.018624,-0.747465813,20350.3937007874,14.0148305237176,6.96900223467814,321.051142936928,-0.220522919278086,-0.0167178874304396,0.0129429627505229,0.00450606851314502,-1.62084243155808
7.3,-17.286377179,-1100.018624,-0.747465813,20350.3937007874,13.983098837622,6.96880737784335,321.032152055246,-0.220756120199846,-0.0166458197517084,0.013230584144979,0.00469781610944907,-1.62122592675069
7.35,-17.286377179,-1100.018624,-0.747465813,20350.3937007874,13.983098837622,6.96880737784335,321.016326320511,-0.220931020891166,-0.0166938648708625,0.0134223317412831,0.00479368990760109,-1.62132180054884
7.4,-17.205226701,-1099.376773568,-0.550396433,20350.3937007874,13.983098837622,6.96880737784335,320.994170291882,-0.219823316512806,-0.016681853591074,0.0129429627505229,0.00498543750390513,-1.62170529574145
7.45,-17.205226701,-1099.376773568,-0.550396433,20350.3937007874,13.983098837622,6.96880737784335,320.968849116307,-0.219998217204126,-0.01663380847192,0.0123677199616108,0.00498543750390513,-1.6218011695396
7.5,-17.205226701,-1099.376773568,-0.550396433,20351.0498687664,13.983098837622,6.96880737784335,320.940362793784,-0.220260568241106,-0.0166698423112855,0.0112172343837865,0.00498543750390513,-1.62208879093406
7.55,-17.205226701,-1099.376773568,-0.550396433,20351.0498687664,13.983098837622,6.96880737784335,320.915041618208,-0.220726970084626,-0.0166458197517084,0.0105461177967224,0.00498543750390513,-1.62228053853036
7.6,-17.065927979,-1098.947408704,-0.524697701,20351.0498687664,13.9619793545286,6.96865748797044,320.877059854845,-0.220581219508526,-0.0165857633527658,0.00939563221889814,0.00469781610944907,-1.62228053853036
7.65,-17.065927979,-1098.947408704,-0.524697701,20351.0498687664,13.9619793545286,6.96865748797044,320.851738679269,-0.220581219508526,-0.0166097859123429,0.0083410204392259,0.00460194231129705,-1.62237641232851
7.7,-17.065927979,-1098.947408704,-0.524697701,20351.3779527559,13.9619793545286,6.96865748797044,320.826417503693,-0.220610369623746,-0.0165497295134002,0.00671116587064153,0.00412257332053694,-1.62256815992482
7.75,-17.065927979,-1098.947408704,-0.524697701,20351.3779527559,13.9619793545286,6.96865748797044,320.807426622011,-0.220522919278086,-0.0165617407931888,0.00498543750390513,0.00412257332053694,-1.62256815992482
7.8,-16.897955605,-1098.260156416,-0.542181077,20351.3779527559,13.9619793545286,6.96865748797044,320.785270593383,-0.220931020891166,-0.0165617407931888,0.00364320432977683,0.00373907812792885,-1.62256815992482
7.85,-16.897955605,-1098.260156416,-0.542181077,20351.3779527559,13.9619793545286,6.96865748797044,320.769444858648,-0.220814420430286,-0.0165377182336118,0.00143810697228033,0.00354733053162481,-1.62256815992482
7.9,-16.897955605,-1098.260156416,-0.542181077,20351.3779527559,13.9334927841816,6.96880737784335,320.750453976966,-0.220726970084626,-0.0165136956740347,-0.000671116587064153,0.00335558293532076,-1.62247228612666
7.95,-16.897955605,-1098.260156416,-0.542181077,20351.3779527559,13.9334927841816,6.96880737784335,320.734628242231,-0.220843570545506,-0.0165497295134002,-0.00191747596304044,0.00316383533901672,-1.62237641232851
8,-16.897955605,-1097.760247808,-0.542181077,20352.0341207349,13.9334927841816,6.96880737784335,320.731463095284,-0.221018471236825,-0.0165377182336118,-0.00393082572423289,0.00316383533901672,-1.62218466473221
8.05,-16.759066888,-1097.780995968,-0.432089967,20352.0341207349,13.9334927841816,6.96880737784335,320.715637360549,-0.220901870775946,-0.0165737520729773,-0.00517718510020918,0.0030679615408647,-1.6219929171359
8.1,-16.759066888,-1097.780995968,-0.432089967,20352.0341207349,13.9334927841816,6.96880737784335,320.699811625815,-0.220785270315066,-0.01663380847192,-0.00690291346694557,0.00316383533901672,-1.6218011695396
8.15,-16.759066888,-1097.780995968,-0.432089967,20352.0341207349,13.9334927841816,6.96880737784335,320.680820744133,-0.220785270315066,-0.0166578310314969,-0.0074781562558577,0.00325970913716874,-1.6216094219433
8.2,-16.759066888,-1097.780995968,-0.432089967,20352.3622047244,13.9344295958873,6.96836520271826,320.664995009398,-0.220814420430286,-0.0167058761506511,-0.00843689423737792,0.00335558293532076,-1.62151354814514
8.25,-16.686202325,-1096.977309888,0.038351677,20352.3622047244,13.9344295958873,6.96836520271826,320.646004127716,-0.220960171006385,-0.0167419099900166,-0.00891626322813803,0.00335558293532076,-1.62141767434699
8.3,-16.686202325,-1096.977309888,0.038351677,20352.3622047244,13.9344295958873,6.96836520271826,320.627013246034,-0.220931020891166,-0.0167659325495936,-0.00949150601705016,0.00345145673347278,-1.62151354814514
8.35,-16.686202325,-1096.977309888,0.038351677,20352.3622047244,13.9344295958873,6.96836520271826,320.608022364353,-0.220931020891166,-0.0167298987102281,-0.00958737981520218,0.00335558293532076,-1.62170529574145
8.4,-16.686202325,-1096.977309888,0.038351677,20352.3622047244,13.9344295958873,6.96836520271826,320.589031482671,-0.220726970084626,-0.0167298987102281,-0.00977912741150622,0.00345145673347278,-1.6219929171359
8.45,-16.692627008,-1096.428704128,0.263093534,20352.3622047244,13.9344295958873,6.96836520271826,320.570040600989,-0.220552069393306,-0.0167058761506511,-0.0101626226041143,0.00345145673347278,-1.62228053853036
8.5,-16.692627008,-1096.428704128,0.263093534,20352.6902887139,13.9019634494144,6.96836520271826,320.551049719307,-0.220610369623746,-0.0166938648708625,-0.0109296129893305,0.00364320432977683,-1.62266403372297
8.55,-16.765392407,-1095.46440288,0.564172601,20352.6902887139,13.9019634494144,6.96836520271826,320.528893690679,-0.221164221812925,-0.0166458197517084,-0.0113131081819386,0.00364320432977683,-1.62295165511743
8.6,-16.765392407,-1095.46440288,0.564172601,20352.6902887139,13.9019634494144,6.96836520271826,320.503572515103,-0.220960171006385,-0.0166217971921314,-0.0122718461634588,0.00393082572423289,-1.62323927651188
8.65,-16.765392407,-1095.46440288,0.564172601,20352.6902887139,13.9019634494144,6.96836520271826,320.481416486474,-0.220639519738966,-0.0165737520729773,-0.013134710346827,0.00412257332053694,-1.62352689790634
8.7,-16.765392407,-1095.46440288,0.564172601,20353.0183727034,13.9019634494144,6.96836520271826,320.456095310898,-0.220085667549786,-0.0165497295134002,-0.0147645649154114,0.004410194714993,-1.62371864550264
8.75,-16.759169866,-1094.901883648,0.661765233,20353.0183727034,13.9019634494144,6.96836520271826,320.424443841429,-0.220406318817206,-0.0165617407931888,-0.0161067980895397,0.00469781610944907,-1.62371864550264
8.8,-16.759169866,-1094.901883648,0.661765233,20353.0183727034,13.8805966480308,6.96826777430087,320.399122665853,-0.220552069393306,-0.0165737520729773,-0.0180242740525801,0.00498543750390513,-1.62362277170449
8.85,-16.759169866,-1094.901883648,0.661765233,20353.0183727034,13.8805966480308,6.96826777430087,320.373801490277,-0.220639519738966,-0.0165857633527658,-0.0191747596304044,0.0052730588983612,-1.62352689790634
8.9,-16.759169866,-1094.901883648,0.661765233,20353.0183727034,13.8805966480308,6.96826777430087,320.348480314701,-0.220552069393306,-0.0166458197517084,-0.0200376238137726,0.0052730588983612,-1.62333515031003
8.95,-16.736312564,-1093.865696128,0.66432252,20353.0183727034,13.8805966480308,6.96826777430087,320.323159139126,-0.220056517434566,-0.0166698423112855,-0.0211881093915968,0.00556068029281726,-1.62304752891558
9,-16.736312564,-1093.865696128,0.66432252,20353.0183727034,13.8805966480308,6.96826777430087,320.29783796355,-0.220260568241106,-0.0167178874304396,-0.0214757307860529,0.00556068029281726,-1.62275990752112
9.05,-16.736312564,-1093.865696128,0.66432252,20353.0183727034,13.8805966480308,6.96826777430087,320.26618649408,-0.220406318817206,-0.0167659325495936,-0.0211881093915968,0.00575242788912131,-1.62275990752112
9.1,-16.736312564,-1093.865696128,0.66432252,20353.0183727034,13.8536764268557,6.96846263113565,320.234535024611,-0.220843570545506,-0.0167539212698051,-0.0205169928045327,0.00575242788912131,-1.62266403372297
9.15,-16.802510255,-1093.123278144,0.487972695,20353.0183727034,13.8536764268557,6.96846263113565,320.206048702088,-0.220406318817206,-0.0167178874304396,-0.0199417500156205,0.00584830168727333,-1.62256815992482
9.2,-16.802510255,-1093.123278144,0.487972695,20353.0183727034,13.8536764268557,6.96846263113565,320.174397232618,-0.219910766858466,-0.0166578310314969,-0.0191747596304044,0.00575242788912131,-1.62275990752112
9.25,-16.802510255,-1093.123278144,0.487972695,20353.0183727034,13.8536764268557,6.96846263113565,320.145910910096,-0.219881616743246,-0.0166217971921314,-0.0190788858322523,0.00575242788912131,-1.62285578131927
9.3,-16.802510255,-1093.123278144,0.487972695,20353.0183727034,13.8536764268557,6.96846263113565,320.111094293679,-0.220173117895446,-0.0166938648708625,-0.0193665072267084,0.00565655409096929,-1.62295165511743
9.35,-16.874068523,-1091.933432192,0.350209108,20353.0183727034,13.8536764268557,6.96846263113565,320.082607971156,-0.220756120199846,-0.0166698423112855,-0.0200376238137726,0.00565655409096929,-1.62285578131927
9.4,-16.874068523,-1091.933432192,0.350209108,20353.0183727034,13.8196439312109,6.96846263113565,320.054121648634,-0.220464619047646,-0.016681853591074,-0.0210922355934448,0.00565655409096929,-1.62275990752112
9.45,-16.874068523,-1091.933432192,0.350209108,20353.0183727034,13.8196439312109,6.96846263113565,320.019305032217,-0.219910766858466,-0.0167058761506511,-0.0214757307860529,0.00575242788912131,-1.62275990752112
9.5,-16.874068523,-1091.933432192,0.350209108,20353.0183727034,13.8196439312109,6.96846263113565,319.987653562747,-0.219969067088906,-0.0167058761506511,-0.0217633521805089,0.00575242788912131,-1.62275990752112
9.55,-16.913423282,-1091.115588544,0.179549771,20353.0183727034,13.8196439312109,6.96846263113565,319.956002093278,-0.220464619047646,-0.0166938648708625,-0.021955099776813,0.00575242788912131,-1.62275990752112
9.6,-16.913423282,-1091.115588544,0.179549771,20353.0183727034,13.8196439312109,6.96846263113565,319.918020329914,-0.220756120199846,-0.0166458197517084,-0.022050973574965,0.00584830168727333,-1.62275990752112
9.65,-16.913423282,-1091.115588544,0.179549771,20353.0183727034,13.8196439312109,6.96846263113565,319.883203713498,-0.220639519738966,-0.0166458197517084,-0.0223385949694211,0.00604004928357737,-1.62275990752112
9.7,-16.913423282,-1091.115588544,0.179549771,20353.3464566929,13.7954292222418,6.96836520271826,319.848387097081,-0.220143967780226,-0.016681853591074,-0.0226262163638771,0.00632767067803344,-1.62285578131927
9.75,-17.042391785,-1089.885710848,-0.014186173,20353.3464566929,13.7954292222418,6.96836520271826,319.816735627611,-0.220114817665006,-0.0167419099900166,-0.0224344687675731,0.00651941827433748,-1.62275990752112
9.8,-17.042391785,-1089.885710848,-0.014186173,20353.3464566929,13.7954292222418,6.96836520271826,319.778753864248,-0.220114817665006,-0.0167298987102281,-0.022146847373117,0.00680703966879355,-1.62275990752112
9.85,-17.042391785,-1089.885710848,-0.014186173,20353.3464566929,13.7954292222418,6.96836520271826,319.750267541725,-0.220202268010666,-0.0167659325495936,-0.0217633521805089,0.00728640865955366,-1.62256815992482
9.9,-17.042391785,-1089.885710848,-0.014186173,20353.3464566929,13.7954292222418,6.96836520271826,319.715450925308,-0.220056517434566,-0.0168019663889592,-0.0209004879971408,0.00757403005400972,-1.62256815992482
9.95,-17.095736296,-1089.04223712,-0.05269041,20353.3464566929,13.7954292222418,6.96836520271826,319.680634308892,-0.219735866167146,-0.0167779438293822,-0.0200376238137726,0.00766990385216174,-1.62247228612666
10,-17.095736296,-1089.04223712,-0.05269041,20353.3464566929,13.7555959885153,6.96846263113565,319.652147986369,-0.219765016282366,-0.0168139776687477,-0.0181201478507321,0.00766990385216174,-1.62266403372297
10.05,-17.095736296,-1089.04223712,-0.05269041,20353.3464566929,13.7555959885153,6.96846263113565,319.620496516899,-0.219794166397586,-0.0168139776687477,-0.0169696622729079,0.00766990385216174,-1.62275990752112
10.1,-17.095736296,-1089.04223712,-0.05269041,20353.3464566929,13.7555959885153,6.96846263113565,319.582514753536,-0.220027367319346,-0.0167298987102281,-0.0157233028969316,0.00738228245770568,-1.62304752891558
10.15,-17.159769542,-1087.762441792,-0.423592375,20353.3464566929,13.7555959885153,6.96846263113565,319.550863284066,-0.220114817665006,-0.0167058761506511,-0.0149563125117154,0.00709466106324961,-1.62323927651188
10.2,-17.159769542,-1087.762441792,-0.423592375,20353.6745406824,13.7555959885153,6.96846263113565,319.519211814597,-0.220114817665006,-0.0166698423112855,-0.0141893221264992,0.00651941827433748,-1.62352689790634
10.25,-17.159769542,-1087.762441792,-0.423592375,20353.6745406824,13.7555959885153,6.96846263113565,319.48439519818,-0.220027367319346,-0.0167058761506511,-0.0139017007320432,0.00613592308172939,-1.62371864550264
10.3,-17.159769542,-1087.762441792,-0.423592375,20353.6745406824,13.739782606923,6.96836520271826,319.45274372871,-0.220143967780226,-0.0167058761506511,-0.0139017007320432,0.00565655409096929,-1.62381451930079
10.35,-17.145816023,-1086.881621376,-0.508848624,20353.6745406824,13.739782606923,6.96836520271826,319.427422553135,-0.220552069393306,-0.0166458197517084,-0.0139017007320432,0.0052730588983612,-1.62381451930079
10.4,-17.145816023,-1086.881621376,-0.508848624,20353.6745406824,13.739782606923,6.96836520271826,319.405266524506,-0.220668669854186,-0.0167058761506511,-0.0141893221264992,0.00488956370575311,-1.62371864550264
10.45,-17.145816023,-1086.881621376,-0.508848624,20353.6745406824,13.739782606923,6.96836520271826,319.376780201983,-0.220756120199846,-0.016681853591074,-0.0143810697228033,0.00469781610944907,-1.62362277170449
10.5,-17.145816023,-1086.881621376,-0.508848624,20353.6745406824,13.739782606923,6.96836520271826,319.354624173354,-0.220348018586766,-0.0167058761506511,-0.0145728173191073,0.00469781610944907,-1.62352689790634
10.55,-17.141307875,-1085.606952064,-0.343536515,20353.6745406824,13.739782606923,6.96836520271826,319.329302997779,-0.220464619047646,-0.0167298987102281,-0.0145728173191073,0.00460194231129705,-1.62343102410818
10.6,-17.141307875,-1085.606952064,-0.343536515,20353.6745406824,13.7128623857479,6.96826777430087,319.300816675256,-0.220726970084626,-0.0167419099900166,-0.0140934483283472,0.00460194231129705,-1.62333515031003
10.65,-17.141307875,-1085.606952064,-0.343536515,20353.6745406824,13.7128623857479,6.96826777430087,319.272330352733,-0.220552069393306,-0.0167779438293822,-0.0138058269338911,0.00479368990760109,-1.62323927651188
10.7,-17.141307875,-1085.606952064,-0.343536515,20354.0026246719,13.7128623857479,6.96826777430087,319.243844030211,-0.220173117895446,-0.0167419099900166,-0.0119842247690027,0.00479368990760109,-1.62323927651188
10.75,-17.190329217,-1084.751395584,0.031795411,20354.0026246719,13.7128623857479,6.96826777430087,319.212192560741,-0.220114817665006,-0.0167659325495936,-0.0104502439985704,0.00517718510020918,-1.62323927651188
10.8,-17.190329217,-1084.751395584,0.031795411,20354.0026246719,13.7128623857479,6.96826777430087,319.190036532112,-0.220464619047646,-0.0168019663889592,-0.0104502439985704,0.0052730588983612,-1.62314340271373
10.85,-17.190329217,-1084.751395584,0.031795411,20354.0026246719,13.7128623857479,6.96826777430087,319.16155020959,-0.220231418125886,-0.0167899551091707,-0.00939563221889814,0.00546480649466524,-1.62323927651188
10.9,-17.190329217,-1084.751395584,0.031795411,20354.3307086614,13.6899292351923,6.96772817075838,319.12989874012,-0.220114817665006,-0.0167539212698051,-0.00824514664107387,0.00536893269651322,-1.62323927651188
10.95,-17.214214392,-1083.500403584,0.312820466,20354.3307086614,13.6899292351923,6.96772817075838,319.101412417597,-0.220056517434566,-0.0167539212698051,-0.00642354447618546,0.00536893269651322,-1.62333515031003
11,-17.214214392,-1083.500403584,0.312820466,20354.3307086614,13.6899292351923,6.96772817075838,319.069760948128,-0.220348018586766,-0.0167659325495936,-0.00460194231129705,0.0052730588983612,-1.62333515031003
11.05,-17.214214392,-1083.500403584,0.312820466,20354.3307086614,13.6899292351923,6.96772817075838,319.038109478658,-0.220406318817206,-0.0167539212698051,-0.00364320432977683,0.0052730588983612,-1.62323927651188
11.1,-17.214214392,-1083.500403584,0.312820466,20354.3307086614,13.6899292351923,6.96772817075838,319.015953450029,-0.220348018586766,-0.0167659325495936,-0.00210922355934448,0.00517718510020918,-1.62314340271373
11.15,-17.14762958,-1082.690981248,0.377820561,20354.3307086614,13.6899292351923,6.96772817075838,318.990632274453,-0.220493769162866,-0.0167899551091707,-0.00105461177967224,0.00498543750390513,-1.62295165511743
11.2,-17.14762958,-1082.690981248,0.377820561,20354.6587926509,13.6899292351923,6.96772817075838,318.962145951931,-0.220348018586766,-0.0168019663889592,0.000862864183368196,0.00498543750390513,-1.62285578131927
11.25,-17.14762958,-1082.690981248,0.377820561,20354.6587926509,13.6538282593013,6.96772817075838,318.930494482461,-0.220435468932426,-0.0168019663889592,0.00210922355934448,0.00488956370575311,-1.62285578131927
11.3,-17.14762958,-1082.690981248,0.377820561,20354.6587926509,13.6538282593013,6.96772817075838,318.898843012991,-0.220435468932426,-0.0167899551091707,0.00412257332053694,0.00488956370575311,-1.62275990752112
11.35,-17.052910797,-1081.459150784,0.743928328,20354.6587926509,13.6538282593013,6.96772817075838,318.873521837416,-0.220260568241106,-0.0167779438293822,0.00546480649466524,0.00498543750390513,-1.62275990752112
11.4,-17.052910797,-1081.459150784,0.743928328,20354.6587926509,13.6538282593013,6.96772817075838,318.841870367946,-0.220377168701986,-0.0167779438293822,0.00719053486140163,0.00498543750390513,-1.62275990752112
11.45,-17.052910797,-1081.459150784,0.743928328,20354.6587926509,13.6538282593013,6.96772817075838,318.81654919237,-0.220493769162866,-0.0168259889485363,0.0083410204392259,0.00488956370575311,-1.62285578131927
11.5,-17.052910797,-1081.459150784,0.743928328,20354.6587926509,13.6538282593013,6.96772817075838,318.788062869848,-0.220406318817206,-0.0167899551091707,0.0100667488059623,0.00498543750390513,-1.62285578131927
11.55,-16.983190877,-1080.64899616,1.029217435,20354.6587926509,13.6355566837933,6.96753331392359,318.759576547325,-0.220406318817206,-0.0167899551091707,0.0112172343837865,0.00498543750390513,-1.62295165511743
11.6,-16.983190877,-1080.64899616,1.029217435,20354.6587926509,13.6355566837933,6.96753331392359,318.731090224802,-0.220173117895446,-0.0167659325495936,0.0126553413560669,0.00498543750390513,-1.62295165511743
11.65,-16.983190877,-1080.64899616,1.029217435,20354.6587926509,13.6355566837933,6.96753331392359,318.705769049226,-0.220493769162866,-0.0168139776687477,0.0136140793375871,0.00508131130205716,-1.62304752891558
11.7,-16.983190877,-1080.64899616,1.029217435,20354.6587926509,13.6355566837933,6.96753331392359,318.677282726704,-0.220435468932426,-0.0168139776687477,0.0148604387135634,0.00508131130205716,-1.62304752891558
11.75,-16.831838008,-1079.448776128,1.41142791,20354.6587926509,13.6355566837933,6.96753331392359,318.648796404181,-0.220435468932426,-0.0168019663889592,0.0156274290987796,0.00517718510020918,-1.62314340271373
11.8,-16.831838008,-1079.448776128,1.41142791,20354.6587926509,13.6355566837933,6.96753331392359,318.620310081658,-0.220085667549786,-0.0168019663889592,0.0163944194839957,0.00488956370575311,-1.62314340271373
11.85,-16.831838008,-1079.448776128,1.41142791,20354.6587926509,13.6114918646972,6.96748085246807,318.591823759136,-0.219881616743246,-0.0167659325495936,0.017640778859972,0.00498543750390513,-1.62333515031003
11.9,-16.831838008,-1079.448776128,1.41142791,20354.6587926509,13.6114918646972,6.96748085246807,318.563337436613,-0.220406318817206,-0.0167779438293822,0.0186953906396442,0.00479368990760109,-1.62323927651188
11.95,-16.673343424,-1078.659735808,1.604444915,20354.6587926509,13.6114918646972,6.96748085246807,318.53485111409,-0.220610369623746,-0.0167419099900166,0.0191747596304044,0.00479368990760109,-1.62323927651188
12,-16.673343424,-1078.659735808,1.604444915,20354.6587926509,13.6114918646972,6.96748085246807,318.506364791568,-0.220464619047646,-0.0167899551091707,0.0197500024193165,0.00469781610944907,-1.62314340271373
12.05,-16.673343424,-1078.659735808,1.604444915,20354.6587926509,13.6114918646972,6.96748085246807,318.481043615992,-0.220114817665006,-0.0167899551091707,0.0202293714100766,0.00469781610944907,-1.62304752891558
12.1,-16.673343424,-1078.659735808,1.604444915,20354.6587926509,13.6114918646972,6.96748085246807,318.452557293469,-0.220406318817206,-0.0168620227879018,0.0207087404008367,0.00469781610944907,-1.62285578131927
12.15,-16.400711076,-1077.499181376,2.023113416,20354.6587926509,13.5869773759823,6.96728599563329,318.43040126484,-0.220406318817206,-0.0168259889485363,0.0209004879971408,0.00469781610944907,-1.62266403372297
12.2,-16.400711076,-1077.499181376,2.023113416,20354.6587926509,13.5869773759823,6.96728599563329,318.401914942318,-0.220406318817206,-0.0168139776687477,0.0214757307860529,0.00488956370575311,-1.62247228612666
12.25,-16.400711076,-1077.499181376,2.023113416,20354.6587926509,13.5869773759823,6.96728599563329,318.370263472848,-0.220522919278086,-0.0168740340676903,0.022146847373117,0.00479368990760109,-1.62237641232851
12.3,-16.400711076,-1077.499181376,2.023113416,20354.6587926509,13.5869773759823,6.96728599563329,318.341777150325,-0.220318868471546,-0.016934090466633,0.0230097115564852,0.00536893269651322,-1.62228053853036
12.35,-16.31346964,-1077.096422976,2.180339845,20354.6587926509,13.5869773759823,6.96728599563329,318.313290827803,-0.220348018586766,-0.0169220791868444,0.0238725757398534,0.0052730588983612,-1.62218466473221
12.4,-16.31346964,-1077.096422976,2.180339845,20354.3307086614,13.5869773759823,6.96728599563329,318.28480450528,-0.220085667549786,-0.0168980566272674,0.0249271875195257,0.00575242788912131,-1.62218466473221
12.45,-16.31346964,-1077.096422976,2.180339845,20354.3307086614,13.5691479755994,6.96738342405068,318.249987888863,-0.220260568241106,-0.0168980566272674,0.0259817992991979,0.00565655409096929,-1.62228053853036
12.5,-16.31346964,-1077.096422976,2.180339845,20354.3307086614,13.5691479755994,6.96738342405068,318.221501566341,-0.220114817665006,-0.0169100679070559,0.0271322848770222,0.00604004928357737,-1.62237641232851
12.55,-16.018840047,-1075.474283008,2.639789541,20354.3307086614,13.5691479755994,6.96738342405068,318.189850096871,-0.220085667549786,-0.0168740340676903,0.0277075276659343,0.00613592308172939,-1.62247228612666
12.6,-16.018840047,-1075.474283008,2.639789541,20354.3307086614,13.5691479755994,6.96738342405068,318.164528921295,-0.220085667549786,-0.0168500115081133,0.0285703918493025,0.00613592308172939,-1.62256815992482
12.65,-16.018840047,-1075.474283008,2.639789541,20354.3307086614,13.5691479755994,6.96738342405068,318.136042598773,-0.220173117895446,-0.0168620227879018,0.0286662656474545,0.00613592308172939,-1.62256815992482
12.7,-16.018840047,-1075.474283008,2.639789541,20353.6745406824,13.5691479755994,6.96738342405068,318.10755627625,-0.220202268010666,-0.0168620227879018,0.0287621394456065,0.00584830168727333,-1.62266403372297
12.75,-15.83200935,-1074.659978752,2.780898006,20353.6745406824,13.53732635558,6.96728599563329,318.07590480678,-0.220056517434566,-0.0168620227879018,0.0284745180511505,0.00584830168727333,-1.62256815992482
12.8,-15.83200935,-1074.659978752,2.780898006,20353.6745406824,13.53732635558,6.96728599563329,318.050583631205,-0.219998217204126,-0.0168740340676903,0.0280910228585424,0.00565655409096929,-1.62256815992482
12.85,-15.83200935,-1074.659978752,2.780898006,20353.6745406824,13.53732635558,6.96728599563329,318.022097308682,-0.220085667549786,-0.0168740340676903,0.0278992752622383,0.00556068029281726,-1.62247228612666
12.9,-15.83200935,-1074.659978752,2.780898006,20353.3464566929,13.53732635558,6.96728599563329,317.993610986159,-0.219969067088906,-0.0168740340676903,0.0278034014640863,0.00536893269651322,-1.62237641232851
12.95,-15.49904715,-1073.490514816,2.96466034,20353.3464566929,13.53732635558,6.96728599563329,317.974620104477,-0.219939916973686,-0.0168620227879018,0.0276116538677823,0.0052730588983612,-1.62237641232851
13,-15.49904715,-1073.490514816,2.96466034,20353.3464566929,13.53732635558,6.96728599563329,317.949298928902,-0.220435468932426,-0.0168380002283248,0.0279951490603904,0.00479368990760109,-1.62237641232851
13.05,-15.49904715,-1073.490514816,2.96466034,20353.3464566929,13.5172336181161,6.9674358855062,317.93030804722,-0.220289718356326,-0.0168500115081133,0.0278992752622383,0.00479368990760109,-1.62237641232851
13.1,-15.49904715,-1073.490514816,2.96466034,20353.3464566929,13.5172336181161,6.9674358855062,317.908152018591,-0.220377168701986,-0.0168500115081133,0.0283786442529985,0.00431432091684098,-1.62247228612666
13.15,-15.320464228,-1072.708797376,3.081544184,20353.3464566929,13.5172336181161,6.9674358855062,317.895491430803,-0.219939916973686,-0.0168620227879018,0.0281868966566944,0.00431432091684098,-1.62247228612666
13.2,-15.320464228,-1072.708797376,3.081544184,20352.6902887139,13.5172336181161,6.9674358855062,317.876500549122,-0.220464619047646,-0.0168139776687477,0.0279951490603904,0.00402669952238492,-1.62266403372297
13.25,-15.320464228,-1072.708797376,3.081544184,20352.6902887139,13.5172336181161,6.9674358855062,317.863839961334,-0.220989321121605,-0.0168019663889592,0.0277075276659343,0.00383495192608087,-1.62285578131927
13.3,-15.320464228,-1072.708797376,3.081544184,20352.6902887139,13.5172336181161,6.9674358855062,317.848014226599,-0.221047621352045,-0.0167779438293822,0.0271322848770222,0.00383495192608087,-1.62314340271373
13.35,-15.069197908,-1071.312202112,3.445069873,20352.6902887139,13.498519867483,6.96763074234099,317.832188491864,-0.221018471236825,-0.0167659325495936,0.0266529158862621,0.00373907812792885,-1.62333515031003
13.4,-15.069197908,-1071.312202112,3.445069873,20352.3622047244,13.498519867483,6.96763074234099,317.819527904076,-0.220931020891166,-0.0167419099900166,0.0255983041065898,0.00383495192608087,-1.62362277170449
13.45,-15.069197908,-1071.312202112,3.445069873,20352.3622047244,13.498519867483,6.96763074234099,317.800537022394,-0.221164221812925,-0.0167058761506511,0.0247354399232216,0.00383495192608087,-1.62381451930079
13.5,-15.069197908,-1071.312202112,3.445069873,20352.3622047244,13.498519867483,6.96763074234099,317.78471128766,-0.221280822273805,-0.0166698423112855,0.0232973329509413,0.00393082572423289,-1.6240062668971
13.55,-14.911275424,-1070.323003072,3.812678449,20352.3622047244,13.498519867483,6.96763074234099,317.765720405978,-0.221601473541225,-0.01663380847192,0.0222427211712691,0.00393082572423289,-1.6241980144934
13.6,-14.911275424,-1070.323003072,3.812678449,20352.3622047244,13.498519867483,6.96763074234099,317.749894671243,-0.221543173310785,-0.0165857633527658,0.0204211190063806,0.00393082572423289,-1.62429388829155
13.65,-14.911275424,-1070.323003072,3.812678449,20352.3622047244,13.4842278681007,6.96753331392359,317.730903789561,-0.221601473541225,-0.0165737520729773,0.0190788858322523,0.00383495192608087,-1.62438976208971
13.7,-14.911275424,-1070.323003072,3.812678449,20351.3779527559,13.4842278681007,6.96753331392359,317.711912907879,-0.221688923886885,-0.0165016843942462,0.0170655360710599,0.00383495192608087,-1.62438976208971
13.75,-14.709101005,-1068.916643968,4.126469578,20351.3779527559,13.4842278681007,6.96753331392359,317.696087173145,-0.221863824578205,-0.0164896731144577,0.0156274290987796,0.00364320432977683,-1.62438976208971
13.8,-14.709101005,-1068.916643968,4.126469578,20351.3779527559,13.4842278681007,6.96753331392359,317.673931144516,-0.221863824578205,-0.0164656505548806,0.0135182055394351,0.00373907812792885,-1.62438976208971
13.85,-14.709101005,-1068.916643968,4.126469578,20351.3779527559,13.4842278681007,6.96753331392359,317.651775115887,-0.221951274923865,-0.0164776618346691,0.0122718461634588,0.00364320432977683,-1.62429388829155
13.9,-14.709101005,-1068.916643968,4.126469578,20350.7217847769,13.4842278681007,6.96753331392359,317.635949381152,-0.221805524347765,-0.0164776618346691,0.0102584964022663,0.00373907812792885,-1.62410214069525
13.95,-14.628547418,-1067.990055552,4.329912152,20350.7217847769,13.465716468796,6.96807291746608,317.613793352523,-0.221834674462985,-0.0164896731144577,0.00920388462259409,0.00373907812792885,-1.6240062668971
14,-14.628547418,-1067.990055552,4.329912152,20350.7217847769,13.465716468796,6.96807291746608,317.594802470842,-0.221718074002105,-0.0164896731144577,0.00738228245770568,0.00402669952238492,-1.62391039309895
14.05,-14.628547418,-1067.990055552,4.329912152,20350.7217847769,13.465716468796,6.96807291746608,317.578976736107,-0.221951274923865,-0.016405594155938,0.00651941827433748,0.00393082572423289,-1.62381451930079
14.1,-14.628547418,-1067.990055552,4.329912152,20350.7217847769,13.465716468796,6.96807291746608,317.559985854425,-0.222067875384745,-0.016405594155938,0.0052730588983612,0.00402669952238492,-1.62371864550264
